Data Year,ID,Property Name,Reporting Status,Address,ZIP Code,Chicago Energy Rating,Exempt From Chicago Energy Rating,Community Area,Primary Property Type,Gross Floor Area - Buildings (sq ft),Year Built,# of Buildings,Water Use (kGal),ENERGY STAR Score,Electricity Use (kBtu),Natural Gas Use (kBtu),District Steam Use (kBtu),District Chilled Water Use (kBtu),All Other Fuel Use (kBtu),Site EUI (kBtu/sq ft),Source EUI (kBtu/sq ft),Weather Normalized Site EUI (kBtu/sq ft),Weather Normalized Source EUI (kBtu/sq ft),Total GHG Emissions (Metric Tons CO2e),GHG Intensity (kg CO2e/sq ft),Latitude,Longitude,Location,Row_ID,Wards,Community Areas,Zip Codes,Census Tracts,Historical Wards 2003-2015
2021,251380,Motley School Apartments,Exempt,739 N Ada St,60642,,true,WEST TOWN,K-12 School,57135,2005,1,,,,,,,,,,,,,,41.8954882,-87.66111127,POINT (-87.66111127 41.8954882),2021-251380,46,25,22620,521,41
2021,256826,,Not Submitted,1201 W Lake Street,,0.0,false,,,140646,,,,,,,,,,,,,,,,41.88425,-87.63245,POINT (-87.63245 41.88425),2021-256826,36,38,14310,92,22
2021,103314,Evergreen Tower,Not Submitted,1333  N CLEVELAND AVE,60610,0.0,false,NEAR NORTH SIDE,,86780,,,,,,,,,,,,,,,,41.9037528,-87.63558845,POINT (-87.63558845 41.9037528),2021-103314,46,37,14926,148,41
2021,172547,,Exempt,2222 S MICHIGAN AVE,60616,,true,NEAR SOUTH SIDE,,103900,,,,,,,,,,,,,,,,41.85215031,-87.62464535,POINT (-87.62464535 41.85215031),2021-172547,9,34,21194,193,48
2021,251575,"Delano Elementary, Edward C -CPS",Exempt,3937 W Wilcox St,60624,,true,WEST GARFIELD PARK,K-12 School,99420,1966,1,,,,,,,,,,,,,,41.87837616,-87.72434523,POINT (-87.72434523 41.87837616),2021-251575,23,27,21572,736,11
2021,251660,Lawndale Community Academy -CPS,Exempt,3500 W Douglas Blvd,60623,,true,NORTH LAWNDALE,K-12 School,116650,1960,1,,,,,,,,,,,,,,41.862916,-87.71298,POINT (-87.71298 41.862916),2021-251660,14,30,21569,772,36
2021,255939,XS Tennis and Education Foundation,Not Submitted,5334 S State St,60609,0.0,false,WASHINGTON PARK,,116997,,,,,,,,,,,,,,,,41.8083,-87.66875,POINT (-87.66875 41.8083),2021-255939,3,59,14924,740,53
2021,260116,,Submitted,3812  S MICHIGAN AVE,60653,0.0,false,DOUGLAS,,71987,,,,,0,0,0,0,,,,,,,,41.82021138,-87.61246867,POINT (-87.61246867 41.82021138),2021-260116,10,4,4301,583,1
2021,251780,Holy Name Cathedral Parish,Not Submitted,735 N State St,60654,0.0,false,NEAR NORTH SIDE,Worship Facility,193226,1936,6,,,,,,,,,,,,,,41.89582933,-87.62812742,POINT (-87.62812742 41.89582933),2021-251780,36,37,21182,626,22
2021,254094,,Submitted,3041 S Michigan Ave,60616,0.0,false,Douglas,,67133,,,,,0,0,0,0,,,,,,,,41.8458598,-87.62921,POINT (-87.62921 41.8458598),2021-254094,9,35,21194,3,12
2021,158424,Virgin Hotels Chicago,Not Submitted,203 209 N WABASH AVE,60601,0.0,false,LOOP,,198000,,,,,,,,,,,,,,,,41.88619746,-87.62593056,POINT (-87.62593056 41.88619746),2021-158424,36,38,14309,580,22
2021,251437,Spry Community Elementary -CPS,Exempt,2400 S Marshall Blvd,60623,,true,SOUTH LAWNDALE,K-12 School,106010,1889,1,,,,,,,,,,,,,,41.84763372,-87.69981687,POINT (-87.69981687 41.84763372),2021-251437,1,32,21569,262,29
2021,251405,Hefferan Elementary -CPS,Exempt,4409 W Wilcox St,60624,,true,WEST GARFIELD PARK,K-12 School,60934,1961,1,,,,,,,,,,,,,,41.878708,-87.73579,POINT (-87.73579 41.878708),2021-251405,23,27,21572,716,11
2021,162209,St. Edmund's Episcopal Church,Not Submitted,6105 S Michigan Ave,60637,0.0,false,WASHINGTON PARK,K-12 School,60000,1937,1,,,,,,,,,,,,,,41.78350218,-87.62163947,POINT (-87.62163947 41.78350218),2021-162209,4,7,22260,404,53
2021,251389,"Hendricks C A, Thomas A -CPS",Exempt,4320 S Princeton,60609,,true,FULLER PARK,K-12 School,56857,1968,1,,,,,,,,,,,,,,41.815727,-87.633569,POINT (-87.633569 41.815727),2021-251389,9,3,14924,189,12
2021,174247,,Not Submitted,421  E 62ND ST,60637,0.0,false,WOODLAWN,,218880,,,,,,,,,,,,,,,,41.78046327,-87.6053081,POINT (-87.6053081 41.78046327),2021-174247,4,9,22260,470,53
2021,117367,Merrimac Square II,Not Submitted,6526  W IRVING PARK RD,60634,0.0,false,DUNNING,,165842,,,,,,,,,,,,,,,,41.94530408,-87.80186746,POINT (-87.80186746 41.94530408),2021-117367,19,17,22254,396,39
2021,251914,Mays,Exempt,838 W MARQUETTE RD,60621,,true,ENGLEWOOD,,52819,,,,,,,,,,,,,,,,41.77277724,-87.64642895,POINT (-87.64642895 41.77277724),2021-251914,32,66,21559,436,19
2021,250034,Broadway Armory,Not Submitted,5917 N Broadway Ave,60660,0.0,false,EDGEWATER,Other - Recreation,168700,1916,1,,,,,,,,,,,,,,41.9891405,-87.65967018,POINT (-87.65967018 41.9891405),2021-250034,16,76,4451,13,40
2021,102332,Truman College,Not Submitted,1145 W Wilson Ave,60640,0.0,false,UPTOWN,College/University,954142,1976,3,,,,,,,,,,,,,,41.9645338,-87.65900659,POINT (-87.65900659 41.9645338),2021-102332,39,31,22616,241,37
2021,132388,,Not Submitted,3913 3959 W MADISON ST,60624,0.0,false,WEST GARFIELD PARK,,57100,,,,,,,,,,,,,,,,41.88046952,-87.72470294,POINT (-87.72470294 41.88046952),2021-132388,23,27,21572,736,11
2021,251524,Air Force Academy (Abbott Elementary ) -CPS,Exempt,3630 S Wells St,60609,,true,ARMOUR SQUARE,K-12 School,68306,1949,1,,,,,,,,,,,,,,41.82818263,-87.63325219,POINT (-87.63325219 41.82818263),2021-251524,48,35,14924,296,26
2021,254342,3110 Sheridan Condominiums,Not Submitted,3110 N Sheridan Rd,60657,0.0,false,Lake View,,142000,,,,,,,,,,,,,,,,41.9391704,-87.64565,POINT (-87.64565 41.9391704),2021-254342,25,57,4449,682,38
2021,101503,,Not Submitted,5604 5624 S WABASH AVE,60637,0.0,false,WASHINGTON PARK,,52081,,,,,,,,,,,,,,,,41.78046327,-87.6053081,POINT (-87.6053081 41.78046327),2021-101503,4,9,22260,470,53
2021,114125,,Not Submitted,1430 1440 S MICHIGAN AVE,60605,0.0,false,NEAR SOUTH SIDE,,131640,,,,,,,,,,,,,,,,41.86863212,-87.62730687,POINT (-87.62730687 41.86863212),2021-114125,10,38,14913,368,48
2021,105673,,Submitted,506  W HARRISON ST,60607,0.0,false,NEAR WEST SIDE,,92435,,,,,0,0,0,0,,,,,,,,41.87399385,-87.651678,POINT (-87.651678 41.87399385),2021-105673,48,29,14917,97,8
2021,106046,,Not Submitted,162  E OHIO ST,60611,0.0,false,NEAR NORTH SIDE,,175000,,,,,,,,,,,,,,,,41.89579275,-87.62247957,POINT (-87.62247957 41.89579275),2021-106046,11,37,21182,158,22
2021,112801,,Not Submitted,5740  N SHERIDAN RD,60660,0.0,false,EDGEWATER,,104500,,,,,,,,,,,,,,,,41.99090057,-87.66660744,POINT (-87.66660744 41.99090057),2021-112801,16,76,4451,536,40
2021,116644,,Submitted,60  E 36TH PL,60653,0.0,false,DOUGLAS,,93310,,,,,0,0,0,0,,,,,,,,41.82021138,-87.61246867,POINT (-87.61246867 41.82021138),2021-116644,10,4,4301,583,1
2021,123973,Dream Town,Exempt,4032 W Madison St,60624,,true,WEST GARFIELD PARK,Office,87000,1926,1,,,,,,,,,,,,,,41.88110552,-87.72691131,POINT (-87.72691131 41.88110552),2021-123973,23,27,21572,659,11
2021,158596,,Not Submitted,4025 4041 N KEDVALE AVE,60641,0.0,false,IRVING PARK,,61400,,,,,,,,,,,,,,,,41.94615136,-87.74707694,POINT (-87.74707694 41.94615136),2021-158596,21,15,22618,360,25
2021,159425,Lawless Gardens,Submitted,3510 S RHODES AVE,60653,0.0,false,DOUGLAS,,740173,,,,,0,0,0,0,,,,,,,,41.83083707,-87.61542242,POINT (-87.61542242 41.83083707),2021-159425,10,1,4301,561,1
2021,159963,Park Plaza | A Jewish Senior Living Community,Not Submitted,6840 N SACRAMENTO AVE,60645,0.0,false,WEST RIDGE,,193255,,,,,,,,,,,,,,,,42.0061506,-87.70564326,POINT (-87.70564326 42.0061506),2021-159963,27,20,22528,32,42
2021,171972,Little Village Plaza,Not Submitted,3045 3101 W 26TH ST,60623,0.0,false,SOUTH LAWNDALE,,72949,,,,,,,,,,,,,,,,41.84367927,-87.70195553,POINT (-87.70195553 41.84367927),2021-171972,1,32,21569,124,29
2021,172126,,Not Submitted,1340 1350 W FULLERTON AVE,60614,0.0,false,LINCOLN PARK,,128002,,,,,,,,,,,,,,,,41.92201051,-87.65461957,POINT (-87.65461957 41.92201051),2021-172126,34,68,21190,797,16
2021,175521,,Not Submitted,5460 5470 S HARPER AVE,60615,0.0,false,HYDE PARK,,68515,,,,,,,,,,,,,,,,41.80224043,-87.60332678,POINT (-87.60332678 41.80224043),2021-175521,33,8,21192,147,1
2021,175601,,Exempt,2701 2749 N ELSTON AVE,60647,,true,LOGAN SQUARE,,56563,,,,,,,,,,,,,,,,41.93151197,-87.68673624,POINT (-87.68673624 41.93151197),2021-175601,40,23,22535,240,24
2021,240752,200 N. Dearborn CA,Submitted,200 N Dearborn St,60601,0.0,false,LOOP,Multifamily Housing,419953,1989,1,,,0,0,0,0,,,,,,,,41.88603988,-87.62982289,POINT (-87.62982289 41.88603988),2021-240752,36,38,14309,92,22
2021,243703,The Newport CA,Submitted,4800 S Chicago Beach Dr,60615,0.0,false,KENWOOD,Multifamily Housing,842012,1963,2,,,0,0,0,0,,,,,,,,41.80656841,-87.58670323,POINT (-87.58670323 41.80656841),2021-243703,10,5,21192,400,1
2021,112188,Dunbar Vocational Acad HS -CPS,Exempt,3000 S King Dr,60616,,true,DOUGLAS,K-12 School,319937,1955,1,,,,,,,,,,,,,,41.84050679,-87.61755085,POINT (-87.61755085 41.84050679),2021-112188,10,1,21194,191,48
2021,251375,Ashe Elementary -CPS,Exempt,8507 S Ingleside,60619,,true,CHATHAM,K-12 School,55335,1960,1,,,,,,,,,,,,,,41.740171,-87.601226,POINT (-87.601226 41.740171),2021-251375,35,40,21546,141,9
2021,103271,,Not Submitted,1344  N DEARBORN ST,60610,0.0,false,NEAR NORTH SIDE,,130200,,,,,,,,,,,,,,,,41.9037528,-87.63558845,POINT (-87.63558845 41.9037528),2021-103271,46,37,14926,148,41
2021,255931,,Not Submitted,5748 N Hermitage Ave,60660,0.0,false,EDGEWATER,,75660,,,,,,,,,,,,,,,,41.99013,-87.66068,POINT (-87.66068 41.99013),2021-255931,16,76,4451,536,40
2021,256608,Laystrom Manufacturing Company,Not Submitted,3900 W Palmer St,,0.0,false,,,76600,,,,,,,,,,,,,,,,41.88425,-87.63245,POINT (-87.63245 41.88425),2021-256608,36,38,14310,92,22
2021,256690,Ingleside Investment Group LLC,Not Submitted,1335 W FARGO AVE,60626-1864,0.0,false,,,31975,,,,,,,,,,,,,,,,42.017109,-87.6644495,POINT (-87.6644495 42.017109),2021-256690,5,10,21853,357,3
2021,256841,,Not Submitted,1649 Broadway,60657,0.0,false,,,69000,,,,,,,,,,,,,,,,41.939695,-87.66901,POINT (-87.66901 41.939695),2021-256841,18,57,4449,742,16
2021,244791,(IL0669) - Chandler,Submitted,450 E Waterside Dr,60601,4.0,false,LOOP,Multifamily Housing,628921,2007,1,,61,12050982.7,23409626.6,0,0,,74.4,122.4,78.1,125.3,2964.6,6.2,41.88716277,-87.61536682,POINT (-87.61536682 41.88716277),2021-244791,36,38,14309,580,22
2021,113745,The Sexton Condominium Association,Submitted,360 W Illinois St,60654,4.0,false,NEAR NORTH SIDE,Multifamily Housing,449107,1915,1,,97,8029855.4,4577299.5,0,0,,32.2,69.7,32.4,68.2,1390,3.6,41.89075805,-87.63753056,POINT (-87.63753056 41.89075805),2021-113745,36,37,4446,652,22
2021,130218,,Not Submitted,2430 2458 W GEORGE ST,60618,0.0,false,AVONDALE,,82800,,,,,,,,,,,,,,,,41.93399769,-87.68971091,POINT (-87.68971091 41.93399769),2021-130218,20,22,21538,467,24
2021,101343,The Resurrection Project - Casa Morelos,Submitted,2015  S MORGAN ST,60608,4.0,false,LOWER WEST SIDE,Multifamily Housing,64644,2009,1,,90,1101240.1,1992554,0,0,,56.9,95.1,58.8,95.8,263.1,4.8,41.84915346,-87.67089596,POINT (-87.67089596 41.84915346),2021-101343,26,33,14920,126,8
2021,250045,Hyde Park Academy HS -CPS,Exempt,6220 S Stony Island Ave,60637,,true,WOODLAWN,K-12 School,324961,1911,1,,,,,,,,,,,,,,41.78216916,-87.58726468,POINT (-87.58726468 41.78216916),2021-250045,33,9,22260,469,32
2021,253966,Greenview Place SLF,Submitted,1501 W Melrose St,60657,4.0,false,LAKE VIEW,Senior Living Community,130428,2009,1,,67,2990656.6,3488389.8,0,0,,77.8,144.5,82,149.8,612.4,7.4,41.93985627,-87.65846293,POINT (-87.65846293 41.93985627),2021-253966,25,57,4449,710,38
2021,160211,633 N St. Clair,Submitted,633 N St Clair St,60611,4.0,false,NEAR NORTH SIDE,Office,632163,1991,1,,94,18318604.9,123162.3,0,0,,29.2,81.3,29.2,81.3,2622.9,4.1,41.893497,-87.622686,POINT (-87.622686 41.893497),2021-160211,36,37,21182,158,22
2021,173811,Park Harbor Condominium Association,Submitted,3620 N. Pine Grove Ave,60613,4.0,false,LAKE VIEW,Multifamily Housing,102874,1970,1,,100,1381911.2,3055279.6,0,0,,48.7,77.6,51,80,359.7,3.9,41.95402016,-87.6620278,POINT (-87.6620278 41.95402016),2021-173811,18,57,21186,725,13
2021,147816,6101 North Clark,Submitted,6101 6111 N CLARK ST,60660,4.0,false,EDGEWATER,Multifamily Housing,53000,1928,1,,,693664.7,2031274.8,0,0,,51.4,76.9,54,78.6,207,3.9,41.99090057,-87.66660744,POINT (-87.66660744 41.99090057),2021-147816,16,76,4451,536,40
2021,251880,Enrico Tonti Elementary School,Submitted,5815 S Homan Ave,60629,1.0,false,GAGE PARK,K-12 School,89103,1928,3,,26,3055820,4545240,0,0,,85.3,149.6,91.5,156.1,677.9,7.6,41.78740764,-87.70774371,POINT (-87.70774371 41.78740764),2021-251880,6,61,21867,801,49
2021,251599,Orozco Elementary -CPS,Not Submitted,1940 W 18th St,60608,0.0,false,LOWER WEST SIDE,K-12 School,107722,1999,1,,,,,,,,,,,,,,41.85797637,-87.67512452,POINT (-87.67512452 41.85797637),2021-251599,26,33,14920,366,8
2021,172772,Manhattan Building Condominium,Submitted,423 439 S DEARBORN ST,60605,1.0,false,LOOP,Multifamily Housing,121000,1891,1,,10,8082059,0,0,0,,66.8,187,70.1,196.4,1154.3,9.5,41.86863212,-87.62730687,POINT (-87.62730687 41.86863212),2021-172772,10,38,14913,368,48
2021,172103,21 East Chestnut Condominium Association,Submitted,21  E CHESTNUT ST,60611,1.0,false,NEAR NORTH SIDE,Multifamily Housing,122400,1962,1,,16,3813803.9,10332699.7,0,0,,115.6,175.9,124.1,184.9,1093.5,8.9,41.89579275,-87.62247957,POINT (-87.62247957 41.89579275),2021-172103,11,37,21182,158,22
2021,251402,Dett -CPS,Exempt,2306 W Maypole Ave,60612,,true,NEAR WEST SIDE,K-12 School,61600,1961,1,,,,,,,,,,,,,,41.88416052,-87.68478473,POINT (-87.68478473 41.88416052),2021-251402,46,29,21184,37,48
2021,120347,1033 Van Buren,Submitted,1033 W VAN BUREN ST,60607,4.0,false,NEAR WEST SIDE,Office,82712,1905,1,,100,327374.8,1361469,0,0,,20.4,28.4,22.4,30.5,119.1,1.4,41.87626485,-87.65305417,POINT (-87.65305417 41.87626485),2021-120347,26,29,14917,87,48
2021,175857,Lake Street Lofts LLC,Submitted,900 910 912 W Lake St & 212 N Peoria St,60607,4.0,false,NEAR WEST SIDE,Multifamily Housing,126000,1886,1,,99,1999277.8,1704904.3,0,0,,34.3,68.4,35.4,68.7,376.1,3.5,41.87399385,-87.651678,POINT (-87.651678 41.87399385),2021-175857,48,29,14917,97,8
2021,160277,208 S La Salle Whole Building,Submitted,208 S LaSalle St,60604,3.5,false,LOOP,Hotel,907563,1911,1,,54,32212125.6,44031717.8,0,23062396.1,,109.4,173.4,111,175.4,8154.9,9,41.87908631,-87.63302012,POINT (-87.63302012 41.87908631),2021-160277,36,38,14912,92,22
2021,174189,,Not Submitted,16  N MORGAN ST,60607,0.0,false,NEAR WEST SIDE,,156536,,,,,,,,,,,,,,,,41.87399385,-87.651678,POINT (-87.651678 41.87399385),2021-174189,48,29,14917,97,8
2021,242633,530 North Lake Shore Drive,Submitted,530 N Lake Shore Dr,60611,4.0,false,NEAR NORTH SIDE,Multifamily Housing,650925,2003,1,,91,7989218.5,20903799.1,0,0,,56.2,86.2,60.4,90.1,2251.4,4.4,41.89211944,-87.61494973,POINT (-87.61494973 41.89211944),2021-242633,36,37,21182,534,22
2021,161150,1104 S Wabash,Submitted,1104 S Wabash Ave,60605,3.0,false,LOOP,College/University,166094,1960,0,,,6110796.5,4169879.6,0,0,,61.9,129.4,65.3,132.9,1094.3,6.6,41.8690082,-87.62636383,POINT (-87.62636383 41.8690082),2021-161150,10,38,14913,368,48
2021,113587,(IL584) - 1240 Lake Shore Drive,Submitted,1240  N LAKE SHORE DR,60610,1.0,false,NEAR NORTH SIDE,Multifamily Housing,160528,1970,1,,13,5863750.6,5781202.2,0,0,,76.9,148.4,80.9,154.7,1144.6,7.6,41.9037528,-87.63558845,POINT (-87.63558845 41.9037528),2021-113587,46,37,14926,148,41
2021,251580,Gillespie Elementary -CPS,Exempt,9301 S State St,60619,,true,ROSELAND,K-12 School,91300,1962,1,,,,,,,,,,,,,,41.72471299,-87.62320762,POINT (-87.62320762 41.72471299),2021-251580,43,45,21546,554,31
2021,146136,Reside on Barry,Submitted,533 549 W BARRY AVE,60657,3.0,false,LAKE VIEW,Multifamily Housing,113088,1966,1,,43,3706946.9,6681891.3,0,0,,91.9,153.8,96.9,157.6,884.4,7.8,41.9398511,-87.65844752,POINT (-87.65844752 41.9398511),2021-146136,25,57,4449,710,38
2021,165924,Lincoln Park Plaza,Submitted,600 W Diversey Pkwy,60614,2.5,false,LAKE VIEW,Multifamily Housing,328617,1982,1,,53,6474703.3,18077916.3,0,0,,90.8,137.3,96.1,141.5,1885,7,41.93284849,-87.64381155,POINT (-87.64381155 41.93284849),2021-165924,25,57,21190,102,38
2021,103682,,Not Submitted,4624  S ELLIS AVE,60653,0.0,false,KENWOOD,,100332,,,,,,,,,,,,,,,,41.82021138,-87.61246867,POINT (-87.61246867 41.82021138),2021-103682,10,4,4301,583,1
2021,251723,James Shields Middle School,Submitted,2611 W 48th St,60632,2.0,false,BRIGHTON PARK,K-12 School,95265,2012,1,,48,3122652.2,2381370,0,0,,57.8,118,60.1,119.4,572.5,6,41.806552,-87.689787,POINT (-87.689787 41.806552),2021-251723,8,55,22248,85,49
2021,160354,Asbury Plaza Venture LLLP,Submitted,750 N Dearborn St,60654,2.0,false,NEAR NORTH SIDE,Multifamily Housing,431149,1981,1,,47,7866168.1,25526062,0,0,,93.5,136.8,101.9,145,2479.3,6.9,41.896027,-87.629782,POINT (-87.629782 41.896027),2021-160354,11,37,4446,670,22
2021,101755,Harris Bank Building,Submitted,115 S LaSalle St,60603,2.5,false,LOOP,Office,1526102,1974,1,,53,64870752.4,85834798.1,0,0,,98.8,178.1,102.3,181.8,13824.4,9.1,41.88031326,-87.63191186,POINT (-87.63191186 41.88031326),2021-101755,36,38,14311,92,22
2021,252037,Ratner Athletics Center,Submitted,5530 S Ellis Ave,60637,2.0,false,HYDE PARK,Fitness Center/Health Club/Gym,168984,2003,1,,,10960531.4,0,19336257.1,4441572,,205.6,343.2,206.4,345.2,3083.4,18.2,41.794456,-87.601381,POINT (-87.601381 41.794456),2021-252037,33,8,22260,154,32
2021,175542,3260 North Lake Shore,Submitted,3260  N LAKE SHORE DR,60657,4.0,false,LAKE VIEW,Multifamily Housing,281528,1928,1,,86,2787218.4,14463521.2,0,0,,66.6,88.8,72.6,93.8,1166.3,4.5,41.9398511,-87.65844752,POINT (-87.65844752 41.9398511),2021-175542,25,57,4449,710,38
2021,158743,Buena Pointe Condominium Association,Submitted,4344 4360 N BROADWAY,60613,3.0,false,UPTOWN,Multifamily Housing,149524,2004,1,,62,3076848.5,7066575,0,0,,67.8,107.2,72,110.4,814.8,5.4,41.96138688,-87.65532001,POINT (-87.65532001 41.96138688),2021-158743,39,31,21186,577,37
2021,158422,"600 Fulton Owner, LLC",Submitted,600 W Fulton St,60661,2.5,false,NEAR WEST SIDE,Office,236216,1901,1,,55,14592851,0,0,0,,61.8,173,63.5,177.9,2084.2,8.8,41.88716166,-87.64324873,POINT (-87.64324873 41.88716166),2021-158422,36,29,4452,784,22
2021,250176,O'Hare Building 804 (Aviation Administration Building),Submitted,10510 W Zemke Rd,60666,2.0,false,OHARE,Office,387041,1943,1,,41,10159840.7,5611220.1,0,0,,95,206.8,97.8,206.2,1749.1,10.5,41.99489655,-87.88775165,POINT (-87.88775165 41.99489655),2021-250176,29,75,16197,668,34
2021,251219,555 Cornelia (251219),Submitted,555 W Cornelia Ave,60657,4.0,false,LAKE VIEW,Multifamily Housing,250200,1961,1,,96,1584135.6,13826466.9,0,0,,69.8,85.8,76.7,93.1,960.6,4.4,41.94580944,-87.64408989,POINT (-87.64408989 41.94580944),2021-251219,39,57,4449,169,37
2021,254025,Englewood,Submitted,901 W 63rd St,60621,3.5,false,Englewood,Multifamily Housing,62800,2010,1,,80,2207931.5,1233428.2,0,0,,54.8,119.1,56.6,121.5,380.9,6.1,41.7761103,-87.6399,POINT (-87.6399 41.7761103),2021-254025,4,66,21559,435,53
2021,256490,,Submitted,5427 N Broadway St,60640,0.0,false,EDGEWATER,,93960,,,,,0,0,0,0,,,,,,,,41.97459,-87.66273,POINT (-87.66273 41.97459),2021-256490,18,31,22616,633,37
2021,118695,260-Senior Suites of Bridgeport,Submitted,2825  S HALSTED,60608,3.0,false,BRIDGEPORT,Senior Living Community,69455,2005,1,,67,1973620.2,3754999.9,0,0,,82.5,136.3,86.8,139.3,481.3,6.9,41.84915346,-87.67089596,POINT (-87.67089596 41.84915346),2021-118695,26,33,14920,126,8
2021,251255,Tower Park Residences: 1235 South Prairie Avenue,Submitted,1235 S Prairie Ave,60605,3.5,false,NEAR SOUTH SIDE,Multifamily Housing,605856,2006,1,,77,10170312.2,25227300.3,0,0,,58.4,90.7,62.4,94.2,2792.5,4.6,41.86619413,-87.62121604,POINT (-87.62121604 41.86619413),2021-251255,9,34,14913,374,48
2021,101671,,Not Submitted,6101 6115 N SEELEY AVE,60659,0.0,false,WEST RIDGE,,65250,,,,,,,,,,,,,,,,41.99046172,-87.70620782,POINT (-87.70620782 41.99046172),2021-101671,27,20,4450,30,42
2021,251250,Lincoln Park Villas,Submitted,1920 N Clark St,60614,0.0,false,LINCOLN PARK,,82955,,,,,0,0,0,0,,,,,,,,41.91720134,-87.63571887,POINT (-87.63571887 41.91720134),2021-251250,34,68,21190,271,51
2021,253946,"Lakeview Pointe Condominium Association, Inc.",Submitted,7736 7772 N Sheridan Rd,60626,4.0,false,ROGERS PARK,Multifamily Housing,80000,2003,1,,86,1608660.1,2706485.4,0,0,,53.9,91.8,56.3,92.8,373.5,4.7,42.01036185,-87.66829765,POINT (-87.66829765 42.01036185),2021-253946,5,10,21853,358,3
2021,243199,Montgomery on Superior Condominium Association,Submitted,500 W Superior St,60654,1.0,false,NEAR NORTH SIDE,Multifamily Housing,649737,2005,1,,11,15585401.8,32202499.3,0,0,,118.5,192.1,127.1,201.1,3936.4,9.8,41.89587403,-87.64226427,POINT (-87.64226427 41.89587403),2021-243199,36,37,4446,617,22
2021,243929,(IL1074) ParkShore Condominium,Submitted,195 N Harbor Dr,60601,2.0,false,LOOP,Multifamily Housing,1122828,1991,1,,46,32300445.2,22092652.3,0,0,,53.9,112.5,55.5,114.2,5786.8,5.7,41.88566808,-87.61471363,POINT (-87.61471363 41.88566808),2021-243929,36,38,14309,580,22
2021,165269,"The Selfhelp Home, Inc.",Submitted,908 920 W ARGYLE ST,60640,1.0,false,UPTOWN,Senior Living Community,147129,1962,1,,7,10911064.2,4619300,0,0,,105.6,240.6,110,249.3,1803.7,12.3,41.97223008,-87.6645957,POINT (-87.6645957 41.97223008),2021-165269,18,31,22616,633,37
2021,239042,400 North LaSalle Condominium Association,Submitted,400 N LaSalle St,60654,3.0,false,NEAR NORTH SIDE,Multifamily Housing,597736,2003,1,,61,14284123,22239779.7,0,0,,61.1,106,64.6,108.5,3221.4,5.4,41.88962593,-87.63339019,POINT (-87.63339019 41.88962593),2021-239042,36,37,4446,670,22
2021,173708,2756-64 N. Pine Grove Ave.,Submitted,2756 2760 N PINE GROVE AVE,60614,2.0,false,LINCOLN PARK,Multifamily Housing,133560,1925,1,,45,1984223.7,9968102.9,0,0,,89.5,120,95.4,124.3,812.9,6.1,41.92201051,-87.65461957,POINT (-87.65461957 41.92201051),2021-173708,34,68,21190,797,16
2021,251762,Franz Peter Schubert Elementary School,Submitted,2727 N Long Ave,60639,2.5,false,BELMONT CRAGIN,K-12 School,101364,1930,4,,59,1616821.2,5884260.1,0,0,,74,105.6,81.7,114.8,543.5,5.4,41.93000505,-87.76055407,POINT (-87.76055407 41.93000505),2021-251762,17,19,22615,79,7
2021,241873,The Columbian Condominium Association,Submitted,1160 S Michigan Ave,60605,3.0,false,LOOP,Multifamily Housing,541521,2007,1,,63,10808755.4,19446579.2,0,0,,65.2,109.2,68.5,110.9,2576.7,5.6,41.86776111,-87.62464689,POINT (-87.62464689 41.86776111),2021-241873,10,38,14913,368,48
2021,175263,1725 West North Avenue Condominium,Submitted,1725  W NORTH AVE,60622,4.0,false,WEST TOWN,Multifamily Housing,55892,1916,1,,84,888813.4,1043441.9,0,0,,40.7,75.4,40.7,75.4,182.4,3.8,41.90225377,-87.68447845,POINT (-87.68447845 41.90225377),2021-175263,11,25,21560,541,16
2021,256615,Marquee at Block 37,Submitted,25 West Randolph Street,,2.5,false,,Multifamily Housing,590021,2016,1,,58,18500007.3,22157536.2,0,0,,68.9,127.2,71.2,128.5,3819.2,6.5,41.88425,-87.63245,POINT (-87.63245 41.88425),2021-256615,36,38,14310,92,22
2021,235739,1000 Condominium Association,Submitted,1000 N Lake Shore Plz,60611,4.0,false,NEAR NORTH SIDE,Multifamily Housing,450036,1964,1,,82,7542577.4,0,0,0,,62.8,99,,,2007.6,5,41.900978,-87.624275,POINT (-87.624275 41.900978),2021-235739,36,37,21182,104,22
2021,250118,Humboldt Park Health,Submitted,1044 N Francisco Ave,60622,2.5,false,WEST TOWN,Hospital (General Medical & Surgical),312898,1917,2,,51,35409974.8,28610401.1,0,0,,204.6,412.9,204.4,408.2,6577.1,21,41.899824,-87.699299,POINT (-87.699299 41.899824),2021-250118,49,25,21560,301,10
2021,103608,329 W 18th St,Not Submitted,329 W 18th St,60616,0.0,false,LOWER WEST SIDE,Office,501360,1911,1,,,,,,,,,,,,,,41.857685,-87.636254,POINT (-87.636254 41.857685),2021-103608,26,33,21194,126,8
2021,105615,Surf III LLC,Submitted,426 W SURF ST,60657,4.0,false,LAKE VIEW,Multifamily Housing,89650,1928,1,,83,2806775,1262082.6,0,0,,45.4,102.4,46.3,104.2,467.9,5.2,41.9398511,-87.65844752,POINT (-87.65844752 41.9398511),2021-105615,25,57,4449,710,38
2021,172592,Hall Plaza West,Not Submitted,4628 - 4650 W Diversey Ave,60639,0.0,false,HERMOSA,Strip Mall,66836,1957,1,,,,,,,,,,,,,,41.9316219,-87.74259904,POINT (-87.74259904 41.9316219),2021-172592,17,19,22615,460,7
2021,157287,Midwest Orthopedics at Rush,Submitted,1611 W HARRISON ST,60612,4.0,false,NEAR WEST SIDE,Medical Office,212511,2009,1,,77,8225325.5,0,14865300,0,,108.7,192.5,106.6,186.9,2161.8,10.2,41.87351299,-87.66703729,POINT (-87.66703729 41.87351299),2021-157287,46,29,21184,5,48
2021,103634,Lewis & O'Malley,Submitted,25 E Jackson Blvd,60604,4.0,false,LOOP,College/University,380371,1928,1,,,12170327.6,14372992.6,0,0,,69.8,129.3,74.6,134.3,2501.7,6.6,41.878202,-87.626867,POINT (-87.626867 41.878202),2021-103634,10,38,14912,367,48
2021,174260,Uptown Bank Building,Exempt,4753 N Broadway St,60640,,true,UPTOWN,Office,101422,1924,1,,,,,,,,,,,,,,41.96873677,-87.65917186,POINT (-87.65917186 41.96873677),2021-174260,39,31,22616,241,40
2021,256728,Alta Grand Central (lt027),Submitted,221 W Harrison St,60607,4.0,false,,Multifamily Housing,262020,2020,1,,94,3798344.2,12337435.5,0,0,,68.1,99.5,,,1197.8,5.1,41.88321,-87.65877,POINT (-87.65877 41.88321),2021-256728,46,29,14917,63,41
2021,254372,Lawndale Christian Health and Fitness Center,Submitted,3750 W OGDEN AVE,60623,,true,North Lawndale,Mixed Use Property,64779,2012,1,,,2937247.2,580580.2,0,0,,54.3,136.4,54.3,136.4,450.4,7,41.85793904,-87.71522054,POINT (-87.71522054 41.85793904),2021-254372,14,30,21569,800,36
2021,251355,"Evers Elementary, Medgar -CPS",Exempt,9811 S Lowe Ave,60628,,true,WASHINGTON HEIGHTS,K-12 School,52968,2014,1,,,,,,,,,,,,,,41.71565288,-87.63896474,POINT (-87.63896474 41.71565288),2021-251355,22,72,21861,593,18
2021,252021,CICS Basil,Submitted,1816 W Garfield Blvd,60609,3.5,false,NEW CITY,K-12 School,57350,1956,1,,71,1462557.2,2442300.1,0,0,,68.1,116.1,73.8,122.2,338.6,5.9,41.794164,-87.67006603,POINT (-87.67006603 41.794164),2021-252021,2,59,14924,767,19
2021,124911,Point at Clark,Submitted,3131 N Clark St,60657,3.0,false,LAKE VIEW,Strip Mall,162490,1995,1,,,7603099.5,0,0,0,,79.7,223,81.9,229.5,1085.9,11.4,41.93916606,-87.6496288,POINT (-87.6496288 41.93916606),2021-124911,25,57,4449,681,38
2021,131633,Fulton-Loomis-Carroll Condominium Association,Submitted,1400 W FULTON ST,60607,4.0,false,NEAR WEST SIDE,Office,62555,1907,1,,98,233128.3,2137763.2,0,0,,37.9,46.3,41.7,50,146.8,2.3,41.88660859,-87.66258804,POINT (-87.66258804 41.88660859),2021-131633,46,29,14917,63,41
2021,252073,118 S Clinton,Submitted,118 S Clinton St,60661,2.5,false,NEAR WEST SIDE,Office,78751,1910,1,,34,4650324,0,0,0,,59.1,165.3,59.3,166,664.2,8.4,41.87993535,-87.64144916,POINT (-87.64144916 41.87993535),2021-252073,36,29,4452,786,48
2021,256793,,Not Submitted,4346 N HONORE ST,60613,0.0,false,North Center,,50000,,,,,,,,,,,,,,,,41.954025,-87.670265,POINT (-87.670265 41.954025),2021-256793,18,57,21186,689,13
2021,103604,525 West Monroe,Submitted,525 W Monroe St,60661,3.5,false,NEAR WEST SIDE,Office,1073992,1983,1,,78,43136858.3,668274.1,0,0,,42.6,118.1,43.6,120.8,6197.1,6,41.880543,-87.640541,POINT (-87.640541 41.880543),2021-103604,36,29,14914,786,48
2021,113573,(IL218) - 1540 Lake Shore Dr,Submitted,1534 1542 N LAKE SHORE DR,60610,4.0,false,NEAR NORTH SIDE,Multifamily Housing,138636,1929,1,,96,2046606.3,6297280.1,0,0,,60.2,89,65.4,93.8,626.8,4.5,41.9037528,-87.63558845,POINT (-87.63558845 41.9037528),2021-113573,46,37,14926,148,41
2021,147565,Lakeside Lofts,Not Submitted,2025  S INDIANA AVE,60616,0.0,false,NEAR SOUTH SIDE,,101333,,,,,,,,,,,,,,,,41.84550365,-87.63055693,POINT (-87.63055693 41.84550365),2021-147565,48,35,21194,346,26
2021,102239,"Lake Park Crescent Associates 1, LP",Submitted,1061  E 41ST PL,60653,3.5,false,OAKLAND,Multifamily Housing,137870,2004,1,,54,1834216.5,8164000.1,0,0,,93.4,128.1,100,134.2,695.6,6.5,41.82021138,-87.61246867,POINT (-87.61246867 41.82021138),2021-102239,10,4,4301,583,1
2021,251414,James Wadsworth Elementary School,Submitted,6650 S Ellis Ave,60637,3.0,false,WOODLAWN,K-12 School,64558,1963,1,,46,1344307.5,3833870.2,0,0,,80.2,120.7,87.2,128,395.6,6.1,41.77374217,-87.60122846,POINT (-87.60122846 41.77374217),2021-251414,33,9,22260,347,32
2021,175905,HI Chicago,Submitted,24 E Congress Pkwy,60605,2.5,false,LOOP,Hotel,100535,1880,1,,33,6568209.2,3121325,0,0,,96.4,215.5,99.2,218.5,1103.9,11,41.87588999,-87.62653046,POINT (-87.62653046 41.87588999),2021-175905,10,38,14913,367,48
2021,130379,,Submitted,444 N WABASH AVE,60611,0.0,false,NEAR NORTH SIDE,,57400,,,,,0,0,0,0,,,,,,,,41.89014125,-87.62668588,POINT (-87.62668588 41.89014125),2021-130379,36,37,21182,626,22
2021,175679,240 N. Ashland,Submitted,240 N Ashland Ave,60607,4.0,false,NEAR WEST SIDE,Office,81887,1900,1,,98,1130757.3,327600,0,0,,17.8,42.9,18.5,43.5,178.9,2.2,41.88655482,-87.66760406,POINT (-87.66760406 41.88655482),2021-175679,46,29,21184,579,41
2021,160179,The Kimpton Gray Hotel,Submitted,39 S LaSalle St,60603,4.0,false,LOOP,Hotel,239678,2016,1,,82,9126895.3,7453619.6,0,0,,69.2,139.3,71.3,141.5,1699.5,7.1,41.88104029,-87.63208087,POINT (-87.63208087 41.88104029),2021-160179,36,38,14311,92,22
2021,251771,1333 North Kingsbury,Submitted,1333 N Kingsbury,60642,1.5,false,NEAR NORTH SIDE,Office,126727,1961,1,,38,4136626.9,9279622.2,0,0,,128.1,203.7,132.8,208.6,1083.7,10.3,41.9060185,-87.64946369,POINT (-87.64946369 41.9060185),2021-251771,46,37,22620,108,16
2021,251563,Lazaro Cardenas Elementary School (South),Submitted,2524 S Central Ave,60623,4.0,false,AUSTIN,K-12 School,84116,1912,2,,90,1172161.9,2212130.2,0,0,,40.2,66.6,43.4,69.9,284.9,3.4,41.869894,-87.764317,POINT (-87.764317 41.869894),2021-251563,7,26,22216,61,52
2021,106102,The Regent Condominium Association,Submitted,190  E WALTON PL,60611,4.0,false,NEAR NORTH SIDE,Multifamily Housing,131500,1996,1,,100,721395.7,3988882.8,0,0,,50.1,66,52.9,68.6,314.9,3.4,41.89579275,-87.62247957,POINT (-87.62247957 41.89579275),2021-106102,11,37,21182,158,22
2021,175728,808-12 Junior Terrace LLC,Submitted,808 812 W JUNIOR TER,60613,3.0,false,UPTOWN,Multifamily Housing,76690,1920,1,,44,2901954.1,2431620,0,0,,69.5,139.2,69.5,139.2,543.6,7.1,41.95402016,-87.6620278,POINT (-87.6620278 41.95402016),2021-175728,18,57,21186,725,13
2021,251455,Richards Career Academy HS -CPS,Exempt,5009 S Laflin St,60609,,true,NEW CITY,K-12 School,103015,1907,1,,,,,,,,,,,,,,41.80286625,-87.66205861,POINT (-87.66205861 41.80286625),2021-251455,4,59,14924,677,19
2021,251433,Walter L Newberry Math & Science Academy ES,Submitted,708 W Willow St,60614,3.5,false,LINCOLN PARK,K-12 School,75176,1937,2,,72,1110127,3566300.1,0,0,,62.2,91.2,68.4,97.6,348,4.6,41.913892,-87.646358,POINT (-87.646358 41.913892),2021-251433,34,68,21190,273,51
2021,156840,One Superior Place - CO (np52),Submitted,1 W Superior St,60654,4.0,false,NEAR NORTH SIDE,Multifamily Housing,706415,1999,1,,94,18885188,10118685,0,0,,44.1,96.6,44.1,96.6,3234.8,4.9,41.89526506,-87.62898937,POINT (-87.62898937 41.89526506),2021-156840,11,37,4446,669,22
2021,135080,537 S. Dearborn St.,Submitted,537  S DEARBORN ST,60605,3.5,false,LOOP,Multifamily Housing,78000,1892,1,,74,2298237.9,1179592.2,0,0,,44.6,98.4,45.8,99.8,390.9,5,41.86863212,-87.62730687,POINT (-87.62730687 41.86863212),2021-135080,10,38,14913,368,48
2021,234374,"(IL554-H) - Kinzie Station, Hi-Rise",Submitted,330 N Jefferson Ct,60661,2.0,false,NEAR WEST SIDE,Multifamily Housing,249616,2000,1,,22,6784182,14361538.1,0,0,,94.1,151.7,101.2,157.5,1731.8,7.7,41.88774849,-87.64394791,POINT (-87.64394791 41.88774849),2021-234374,36,29,4452,784,22
2021,105488,5600 N. Sheridan,Submitted,5600  N SHERIDAN RD,60660,1.0,false,EDGEWATER,Multifamily Housing,115973,1963,1,,10,2770230.1,11940500.1,0,0,,147.6,203.6,161.2,216.1,1029.9,10.3,41.99090057,-87.66660744,POINT (-87.66660744 41.99090057),2021-105488,16,76,4451,536,40
2021,251526,John Barry Elementary School,Submitted,2828 N Kilbourn Ave,60641,1.5,false,HERMOSA,K-12 School,78700,1927,2,,35,1139459.9,6929750.2,0,0,,102.5,133,115.1,146.2,530.8,6.7,41.93235271,-87.74015991,POINT (-87.74015991 41.93235271),2021-251526,17,21,22618,411,7
2021,256765,,Not Submitted,2750 N ELSTON AVE,60647,0.0,false,Logan Square,,50000,,,,,,,,,,,,,,,,41.921025,-87.691375,POINT (-87.691375 41.921025),2021-256765,41,23,22535,323,24
2021,101998,TransUnion LLC,Submitted,555 W Adams St,60661,4.0,false,NEAR WEST SIDE,Office,312000,1990,1,,100,8915402.5,0,0,0,,28.6,80,28.6,80,1273.4,4.1,41.87897953,-87.64154809,POINT (-87.64154809 41.87897953),2021-101998,36,29,4452,786,48
2021,251509,Richard J Daley Elementary Academy,Submitted,5024 S Wolcott Ave,60609,1.0,false,NEW CITY,K-12 School,73350,1996,1,,12,2793137.2,5207570.4,0,0,,109.1,181.2,117.2,188.8,675.5,9.2,41.80242628,-87.67247949,POINT (-87.67247949 41.80242628),2021-251509,4,59,14924,709,19
2021,134421,Marketplace At Six Corners,Submitted,4612 - 4730 W Irving Park Rd,60641,4.0,false,PORTAGE PARK,Other - Mall,77966,1997,1,,,162859.1,1067347.7,0,0,,15.8,20.2,18.2,22.9,80,1,41.95551563,-87.74491933,POINT (-87.74491933 41.95551563),2021-134421,50,15,22618,139,20
2021,100001,Ascension SMEMC St Elizabeth Campus,Submitted,1431 N Claremont Ave,60622,,true,WEST TOWN,Mixed Use Property,505417,1928,3,,,18651203.3,34208710.8,0,0,,171,285.2,175.3,286.7,4480.9,14.5,41.90743588,-87.68538017,POINT (-87.68538017 41.90743588),2021-100001,41,25,21560,516,24
2021,158630,(IL0466) - Erie Centre Condo,Submitted,375 425 W Erie St,60654,1.0,false,NEAR NORTH SIDE,Multifamily Housing,428000,1999,2,,23,20620695,2595164.3,0,0,,57.6,149.9,58.3,150.7,3083,7.6,41.89369142,-87.63934318,POINT (-87.63934318 41.89369142),2021-158630,36,37,4446,652,22
2021,251245,3800 N. Lake Shore Drive,Submitted,3800 Lake Shore Dr,60613,0.0,false,LAKE VIEW,Multifamily Housing,249095,1925,1,,,0,0,0,0,,,,,,,,41.95273621,-87.64559131,POINT (-87.64559131 41.95273621),2021-251245,39,57,21186,690,37
2021,119347,2101 S Wabash Ave,Submitted,2101 S WABASH AVE,60616,2.5,false,NEAR SOUTH SIDE,Multifamily Housing,31672,1900,1,,58,1313551.4,0,0,0,,41.5,116.1,41.2,115.3,187.6,5.9,41.85408637,-87.62512419,POINT (-87.62512419 41.85408637),2021-119347,9,34,21194,374,48
2021,110254,(IL405) -110 W Superior,Submitted,110 W SUPERIOR ST,60654,4.0,false,NEAR NORTH SIDE,Multifamily Housing,345904,2009,1,,99,3944688.3,7506462.7,0,0,,41.1,67.9,43.5,69.7,962.1,3.5,41.89158015,-87.63783734,POINT (-87.63783734 41.89158015),2021-110254,36,37,4446,652,22
2021,114339,Sheridan Point Condominiums,Submitted,6325  N SHERIDAN RD,60660,2.5,false,EDGEWATER,Multifamily Housing,186552,1969,1,,59,2755473.2,10397073.6,0,0,,84.4,119.6,92.4,126.7,945.8,6.1,41.99090057,-87.66660744,POINT (-87.66660744 41.99090057),2021-114339,16,76,4451,536,40
2021,159982,Mahalia Jackson Apt,Not Submitted,9141 - 9177 S South Chicago Ave,60617,0.0,false,SOUTH CHICAGO,Multifamily Housing,103330,1974,2,,,,,,,,,,,,,,41.72901449,-87.55425891,POINT (-87.55425891 41.72901449),2021-159982,37,42,21202,510,43
2021,229016,Fulton House Condominium Association,Submitted,345-355 N Canal St,60606,3.5,false,NEAR WEST SIDE,Multifamily Housing,175456,1900,1,,56,7926366,0,0,0,,45.2,126.5,47.8,133.9,1132.1,6.5,41.88806221,-87.63991405,POINT (-87.63991405 41.88806221),2021-229016,36,29,14914,784,22
2021,227382,Drake Tower Apartments Inc.,Submitted,179 E LAKESHORE DR,60611,3.0,false,NEAR NORTH SIDE,Multifamily Housing,276310,1928,1,,46,4625064.9,378275.8,13463116.2,0,,75,119.9,,,1523.2,6.2,41.90042814,-87.62262826,POINT (-87.62262826 41.90042814),2021-227382,11,37,21182,105,22
2021,101551,METROPOLITIAN PIER AND EXPOSITION AUTHORITY,Submitted,301 Cermak Rd,60616,3.0,false,ARMOUR SQUARE,Convention Center,9245333,1971,10,,,377253921.6,346816224.7,0,0,,78.3,153.6,81.9,157.4,72302.9,7.8,41.85284,-87.634931,POINT (-87.634931 41.85284),2021-101551,26,35,21194,3,8
2021,172529,One East 14th Place,Submitted,5 E 14th Pl,60605,4.0,false,NEAR SOUTH SIDE,Multifamily Housing,204036,2000,1,,88,3812944.1,4053390.2,0,0,,50.7,96.2,52.2,97.3,759.9,4.9,41.86215282,-87.62699452,POINT (-87.62699452 41.86215282),2021-172529,9,34,14913,374,12
2021,250145,180 North Wabash LLC,Submitted,180 N Wabash Ave,60601,1.5,false,LOOP,Office,162153,1919,1,,33,9529009.7,8375340.9,0,0,,110.4,218.8,114.5,221.7,1805.8,11.1,41.88542351,-87.62666782,POINT (-87.62666782 41.88542351),2021-250145,36,38,14309,580,22
2021,157469,(IL0444) - VB 1224 Lofts CA,Submitted,1224 W Van Buren St,60607,2.5,false,NEAR WEST SIDE,Multifamily Housing,362107,2007,1,,57,5994321,15914964.5,0,0,,73.2,112,77.4,114.3,1701.5,5.7,41.87684325,-87.65816993,POINT (-87.65816993 41.87684325),2021-157469,23,29,14917,91,48
2021,254377,Cicero & George,Submitted,4800 W GEORGE ST,60641,4.0,false,Belmont Cragin,Multifamily Housing,76764,2016,1,,61,2315646.9,1885224.1,0,0,,54.7,110.3,56.4,112,430.9,5.6,41.95364019,-87.7328657,POINT (-87.7328657 41.95364019),2021-254377,50,16,22618,269,25
2021,173874,The Denifer,Submitted,5400 5406 N KENMORE AVE,60640,3.5,false,EDGEWATER,Multifamily Housing,81600,1990,1,,71,879622.5,5649999.8,0,0,,80,102.9,87,109.8,425.7,5.2,41.97223008,-87.6645957,POINT (-87.6645957 41.97223008),2021-173874,18,31,22616,633,37
2021,105619,529 West Wellington,Submitted,521 541 W WELLINGTON AVE,60657,4.0,false,LAKE VIEW,Multifamily Housing,80064,1925,1,,81,799525.8,3977083.6,0,0,,59.7,80.1,63.4,82.8,325.4,4.1,41.9398511,-87.65844752,POINT (-87.65844752 41.9398511),2021-105619,25,57,4449,710,38
2021,103643,180 North LaSalle,Submitted,180 N LaSalle St,60601,3.5,false,LOOP,Office,859786,1972,1,,76,21818218.2,22096230.8,0,17614031.6,,71.6,116.7,72.4,117.9,5218.1,6.1,41.88538772,-87.63289117,POINT (-87.63289117 41.88538772),2021-103643,36,38,14309,92,22
2021,250102,Maria Diaz Martinez Apts,Not Submitted,2111 N Halsted St,60614,0.0,false,LINCOLN PARK,Multifamily Housing,133953,1968,1,,,,,,,,,,,,,,41.92026783,-87.64782227,POINT (-87.64782227 41.92026783),2021-250102,34,68,21190,798,51
2021,251282,1100 N. Dearborn,Submitted,1100 N Dearborn St,60610,2.0,false,NEAR NORTH SIDE,Multifamily Housing,179090,1930,1,,44,3124563.6,16517017.8,0,0,,109.7,145.7,119.6,155,1323.6,7.4,41.90201818,-87.63035975,POINT (-87.63035975 41.90201818),2021-251282,11,37,14926,310,22
2021,175740,Heartbreak Loftominium Association,Submitted,17  N LOOMIS ST,60607,3.0,false,NEAR WEST SIDE,Multifamily Housing,90000,1915,1,,68,1186937.2,3971543.3,0,0,,57.3,83.3,60.5,85.1,380.5,4.2,41.87399385,-87.651678,POINT (-87.651678 41.87399385),2021-175740,48,29,14917,97,8
2021,159000,Harlan Comm Academy -CPS,Exempt,9652 S Michigan Ave,60628,,true,ROSELAND,K-12 School,169730,1957,1,,,,,,,,,,,,,,41.71752186,-87.62130132,POINT (-87.62130132 41.71752186),2021-159000,43,45,21861,567,31
2021,242148,(IL337) - Museum Park Place South,Submitted,1841 S Calumet Ave,60616,2.0,false,NEAR SOUTH SIDE,Multifamily Housing,407616,2006,1,,46,10207943.1,16349731.8,0,0,,88.2,151.9,93.9,157.9,2326.4,7.7,41.85728279,-87.61931697,POINT (-87.61931697 41.85728279),2021-242148,9,34,21194,374,48
2021,260078,,Not Submitted,1626  W 87TH ST,60620,0.0,false,AUBURN GRESHAM,,74165,,,,,,,,,,,,,,,,41.74023286,-87.65352897,POINT (-87.65352897 41.74023286),2021-260078,13,70,21554,531,18
2021,175185,Jeffery Building Inc.,Submitted,1949 1959 E 71ST ST,60649,4.0,false,SOUTH SHORE,Multifamily Housing,52193,1935,1,,61,820965.4,3451440,0,0,,81.9,113.5,86.4,117.5,300.6,5.8,41.76259226,-87.57231648,POINT (-87.57231648 41.76259226),2021-175185,33,39,22538,453,32
2021,254513,Xavier (xv01),Submitted,625 W Division St,60610,3.5,false,Near North Side,Multifamily Housing,280827,2015,1,,72,7180185.5,6180442,0,0,,57.4,114.3,59.6,116.6,1353.8,5.8,41.90412113,-87.63142484,POINT (-87.63142484 41.90412113),2021-254513,11,37,14926,17,22
2021,104095,4600-4650 W. Diversey,Submitted,4600 4650 W Diversey Ave,60639,4.0,false,HERMOSA,Strip Mall,53267,1957,1,,,416464.6,1731484.6,0,0,,40.3,56,,,151.4,2.8,41.93162302,-87.74252593,POINT (-87.74252593 41.93162302),2021-104095,17,19,22615,460,7
2021,136695,,Exempt,3636 3646 S IRON ST,60609,,true,MCKINLEY PARK,,186000,,,,,,,,,,,,,,,,41.82776094,-87.65952686,POINT (-87.65952686 41.82776094),2021-136695,48,56,14924,721,26
2021,101835,Accesso 230 W Monroe,Submitted,230 W Monroe,60606,4.0,false,LOOP,Office,677385,1971,1,,69,23869082.7,28959598.6,0,0,,78,143.6,81,146.4,4947.3,7.3,41.88100752,-87.63490659,POINT (-87.63490659 41.88100752),2021-101835,36,38,14914,92,48
2021,159187,Midway Gardens Apartments,Not Submitted,727 E 60TH ST,60637,0.0,false,WOODLAWN,,305742,,,,,,,,,,,,,,,,41.78555297,-87.60744454,POINT (-87.60744454 41.78555297),2021-159187,4,9,22260,471,53
2021,106113,"725 W Sheridan Condominium Association, Inc.",Submitted,721 729 W SHERIDAN RD,60613,4.0,false,LAKE VIEW,Multifamily Housing,67346,1920,1,,91,630887.7,3483855,0,0,,78.6,103.6,84.8,110.1,275.2,5.3,41.95402016,-87.6620278,POINT (-87.6620278 41.95402016),2021-106113,18,57,21186,725,13
2021,158394,Michigan - 180 Property LLC,Submitted,180 N Michigan Ave,60601,2.5,false,LOOP,Office,231521,1927,1,,56,9055216,10321457.6,0,0,,83.7,156.3,89,161.9,1841.5,8,41.88552372,-87.62497458,POINT (-87.62497458 41.88552372),2021-158394,36,38,14309,580,22
2021,251222,2229 South Halsted,Submitted,2229 S Halsted St,60608,1.0,false,LOWER WEST SIDE,Office,140445,1908,1,,29,5784524,6528.6,0,0,,68.1,190.6,68.1,190.6,826.5,9.7,41.85175985,-87.64626343,POINT (-87.64626343 41.85175985),2021-251222,48,33,14920,126,8
2021,251470,Dett,Exempt,2101 W Monroe,60612,,true,NEAR WEST SIDE,K-12 School,70600,1961,1,,,,,,,,,,,,,,41.87995,-87.679167,POINT (-87.679167 41.87995),2021-251470,46,29,21184,89,48
2021,111987,442 Wellington Cooperative Building Corporation,Submitted,442 444 W WELLINGTON AVE,60657,4.0,false,LAKE VIEW,Multifamily Housing,131625,1928,1,,100,1504692,5287080.8,0,0,,51.6,74.2,56.1,78.1,495.7,3.8,41.9398511,-87.65844752,POINT (-87.65844752 41.9398511),2021-111987,25,57,4449,710,38
2021,252284,Amhurst Lofts,Submitted,2600 N Southport Ave,60614,3.5,false,LINCOLN PARK,Multifamily Housing,150526,1920,1,,76,1632273.5,5195458.6,0,0,,61.8,90.7,65.3,92.7,509.1,4.6,41.92905985,-87.66340744,POINT (-87.66340744 41.92905985),2021-252284,40,68,21190,796,16
2021,118737,CHICAGO PETERSON AVE (2079),Submitted,2112 W Peterson Ave,60659,3.0,false,WEST RIDGE,Retail Store,408694,2006,1,,70,8050010.1,5857700.4,0,0,,86.8,179.1,90.4,180.9,1460.9,9.1,41.99066763,-87.68218165,POINT (-87.68218165 41.99066763),2021-118737,24,20,4450,43,46
2021,254057,HAYMARKET CENTER,Submitted,932 W Washington Blvd,60607,3.0,false,Near West Side,Residential Care Facility,150000,1890,1,,,7036373.1,9654439.7,0,0,,111.3,198.9,115,200.2,1517.8,10.1,41.8742951,-87.65018,POINT (-87.65018 41.8742951),2021-254057,48,29,14917,97,8
2021,176020,Hyde Park Bank,Submitted,1515 - 1531 E 53rd St,60615,3.0,false,HYDE PARK,Office,158000,1926,1,,,2793759.2,8338302,0,0,,70.5,104.9,76.9,111.7,841.9,5.3,41.7992525,-87.58844296,POINT (-87.58844296 41.7992525),2021-176020,33,8,21192,500,1
2021,140794,The Parc Orleans Condominium Association Inc,Submitted,1546  N ORLEANS ST,60610,4.0,false,NEAR NORTH SIDE,Multifamily Housing,159623,2002,1,,78,3076931.4,3700884.5,0,0,,58.4,107.6,61.1,109.7,636,5.5,41.9037528,-87.63558845,POINT (-87.63558845 41.9037528),2021-140794,46,37,14926,148,41
2021,250056,Whitney M Young Magnet High School,Submitted,211 S Laflin St,60607,1.0,false,NEAR WEST SIDE,K-12 School,430443,1975,3,,3,26119870,37123716.8,0,0,,146.9,260.5,156.9,271,5702.4,13.2,41.87825891,-87.6636621,POINT (-87.6636621 41.87825891),2021-250056,46,29,14917,91,48
2021,243596,Imperial Towers Condominium,Submitted,4250 N Marine Dr,60613,0.0,false,UPTOWN,Multifamily Housing,1256710,1962,1,,,0,0,0,0,,,,,,,,41.96030097,-87.64752405,POINT (-87.64752405 41.96030097),2021-243596,39,31,21186,636,37
2021,252105,611 S. Wells Street Condo (The Vetro),Submitted,611 S Wells St,60607,1.5,false,LOOP,Multifamily Housing,405149,2007,1,,31,12941535.2,7598245,0,0,,70.8,152.4,73.6,157.3,2252,7.8,41.8740597,-87.63330942,POINT (-87.63330942 41.8740597),2021-252105,26,38,14917,12,48
2021,172800,5110 S Kenwood,Submitted,5110  S KENWOOD AVE,60615,4.0,false,HYDE PARK,Multifamily Housing,55932,1990,1,,65,1038353.8,4621300.2,0,0,,101.2,138.7,105.3,142.4,393.8,7,41.80224043,-87.60332678,POINT (-87.60332678 41.80224043),2021-172800,33,8,21192,147,1
2021,161053,Santa Clara Hall-ID# 161053,Submitted,1000 - 1008 W Loyola Ave,60626,4.0,false,ROGERS PARK,Residence Hall/Dormitory,61053,1924,1,,81,1500722.1,2720929.2,0,0,,69.1,115.6,73.8,119.6,358.9,5.9,42.00188394,-87.65658968,POINT (-87.65658968 42.00188394),2021-161053,5,10,21853,267,3
2021,101713,Aon Center,Submitted,200 E Randolph St,60601,3.5,false,LOOP,Office,3457865,1972,1,,77,82280448.2,76821702.6,0,63680135.9,,69.8,115.6,69.7,115.7,19200.1,6,41.88529085,-87.62152084,POINT (-87.62152084 41.88529085),2021-101713,36,38,14309,580,22
2021,242950,Park Place Chicago Condominium Association,Submitted,600 N KINGSBURY ST,60654,1.0,false,NEAR NORTH SIDE,Multifamily Housing,326810,2002,1,,14,5973419.1,15823283,0,8496587.9,,126.1,170.9,126.5,172.3,,,41.89286738,-87.64141169,POINT (-87.64141169 41.89286738),2021-242950,36,37,4446,652,22
2021,256411,8792,Submitted,303 E Chicago Ave,60611,2.0,false,NEAR NORTH SIDE,Laboratory,303490,1925,1,,,24001161.3,66866979.4,0,0,,299.4,452.8,296.7,445.3,6979.6,23,41.89837,-87.62281702,POINT (-87.62281702 41.89837),2021-256411,11,37,21182,233,22
2021,115231,,Not Submitted,1209 1213 W SHERWIN AVE,60626,0.0,false,ROGERS PARK,,59296,,,,,,,,,,,,,,,,42.01036185,-87.66829765,POINT (-87.66829765 42.01036185),2021-115231,5,10,21853,358,3
2021,117024,(IL373) - Bucktown Park Condominium Association,Submitted,1830  N WINCHESTER AVE,60622,4.0,false,LOGAN SQUARE,Multifamily Housing,73000,1994,1,,100,376129.3,0,0,0,,5.5,15.3,5.4,15,53.7,0.8,41.90225377,-87.68447845,POINT (-87.68447845 41.90225377),2021-117024,11,25,21560,541,16
2021,159936,7130 Cyril Court Apartments,Submitted,7130 S CYRIL CT,60649,3.5,false,SOUTH SHORE,Multifamily Housing,81140,1929,1,,52,1175942.4,7032020.1,0,0,,101.2,131.6,110.7,141.6,541.5,6.7,41.76506128,-87.57735119,POINT (-87.57735119 41.76506128),2021-159936,33,39,22538,452,32
2021,175872,Piper's Alley,Submitted,230 W North Ave,60610,,true,LINCOLN PARK,Mixed Use Property,355532,1977,1,,,12207774.3,7395613.1,0,0,,89.3,191.1,91.3,193.1,2136.4,9.7,41.91153938,-87.63616909,POINT (-87.63616909 41.91153938),2021-175872,11,68,21190,271,51
2021,101943,303 West Madison,Submitted,303 W Madison St,60606,4.0,false,LOOP,Office,353439,1987,1,,77,17387934.1,0,0,0,,50.3,140.9,52.2,146.3,2483.5,7.2,41.88191292,-87.63561095,POINT (-87.63561095 41.88191292),2021-101943,36,38,14914,92,48
2021,102460,Museum of Science and Industry,Submitted,5700 S Lake Shore Dr,60637,4.0,false,HYDE PARK,Museum,1211750,1893,1,,,34007516.6,19338559.2,0,0,,44,95.3,46.4,97.8,5884.3,4.9,41.79055467,-87.58295123,POINT (-87.58295123 41.79055467),2021-102460,33,8,22260,502,32
2021,250079,Ada S Dennison-McKlinley Apts,Not Submitted,661 E 69th St,60637,0.0,false,WOODLAWN,Multifamily Housing,83063,1968,1,,,,,,,,,,,,,,41.769414,-87.608999,POINT (-87.608999 41.769414),2021-250079,4,9,22260,348,31
2021,251590,Tarkington School of Excellence ES,Submitted,3330 W 71st St,60629,1.0,false,CHICAGO LAWN,K-12 School,136289,2005,1,,20,6180346.7,4182969.9,0,0,,76,159.2,78.6,158.5,1104.9,8.1,41.764373,-87.705686,POINT (-87.705686 41.764373),2021-251590,31,64,21867,383,6
2021,156536,228 South Wabash Building,Submitted,228 S Wabash Ave,60604,4.0,false,LOOP,Office,64630,1930,1,,65,3310364,0,0,0,,51.2,143.4,52,145.6,472.8,7.3,41.8791193,-87.62611087,POINT (-87.62611087 41.8791193),2021-156536,36,38,14912,367,22
2021,251859,Epic Academy Charter High School,Submitted,8255 S Houston Ave,60617,3.5,false,SOUTH CHICAGO,K-12 School,69921,1902,1,,79,882847.5,2415633.6,0,0,,47.2,71.6,52,76.7,254.4,3.6,41.74548157,-87.55011078,POINT (-87.55011078 41.74548157),2021-251859,37,42,21202,505,43
2021,172221,"TCB-Midway, LLC",Submitted,5109 5151 S PULASKI RD,60632,4.0,false,WEST ELSDON,Strip Mall,98574,1988,2,,,3078794.3,25972.2,0,0,,55.9,155.6,54.6,152.2,441.1,7.9,41.7991492,-87.72266908,POINT (-87.72266908 41.7991492),2021-172221,6,60,22248,792,35
2021,251613,SoutHigh School ide Occupational Academy HS -CPS,Submitted,7342 S Hoyne Ave,60636,0.0,false,WEST ENGLEWOOD,K-12 School,54740,1988,1,,,0,0,0,0,,,,,,,,41.75969491,-87.67627676,POINT (-87.67627676 41.75969491),2021-251613,31,65,22257,433,17
2021,251449,Libby Elementary -CPS,Exempt,5300 S Loomis Blvd,60609,,true,NEW CITY,K-12 School,115600,1901,1,,,,,,,,,,,,,,41.79736598,-87.66014873,POINT (-87.66014873 41.79736598),2021-251449,4,59,14924,790,19
2021,255017,Midway Pointe Senior Residences,Submitted,5011 W 47TH ST,60638,4.0,false,Garfield Ridge,Multifamily Housing,88080,2017,1,,91,2193697.6,1522470,0,0,,42.2,87.9,43.6,89.8,394.2,4.5,41.80752955,-87.74863158,POINT (-87.74863158 41.80752955),2021-255017,28,53,22268,605,35
2021,251316,"03538- Chicago, IL",Submitted,1763 W Howard St,60626,1.5,false,ROGERS PARK,Supermarket/Grocery Store,70262,2013,1,,40,10597078.3,6598099.7,0,0,,244.7,520.9,252.6,523.6,1864,26.5,42.01936658,-87.67528214,POINT (-87.67528214 42.01936658),2021-251316,5,10,21853,489,3
2021,251331,Munroe Hall,Submitted,2312 N Clifton Ave,60614,4.0,false,LINCOLN PARK,College/University,81951,1970,1,,,2967459.4,4747266.6,0,0,,94.1,162.2,100.1,168.5,676,8.2,41.92394692,-87.65759559,POINT (-87.65759559 41.92394692),2021-251331,34,68,21190,797,16
2021,252058,Logan Arts Center,Submitted,915 E 60th St,60637,3.0,false,WOODLAWN,Performing Arts,188821,2011,1,,,5690509.7,0,4621747.2,6153120,,87.2,143.5,82.9,139.6,1443.9,7.6,41.785854,-87.603817,POINT (-87.603817 41.785854),2021-252058,4,9,22260,470,53
2021,241133,Vue20 Condo Association,Submitted,1845 S Michigan Ave,60616,4.0,false,NEAR SOUTH SIDE,Multifamily Housing,250000,2003,1,,77,5275801.6,9118760.3,0,0,,57.6,97.4,60.3,99.6,1237.9,5,41.85653627,-87.62356312,POINT (-87.62356312 41.85653627),2021-241133,9,34,21194,374,48
2021,260184,Hampden Green Condominium Association,Submitted,2728 N HAMPDEN CT,60614,1.5,false,LINCOLN PARK,Multifamily Housing,170000,1970,1,,37,3055237.9,13403999.9,0,0,,117.6,161.6,115.5,159.4,1148.3,8.2,41.92201051,-87.65461957,POINT (-87.65461957 41.92201051),2021-260184,34,68,21190,797,16
2021,164777,Professional Office Building,Submitted,840 W Irving Park Rd,60613,2.0,false,UPTOWN,Medical Office,51825,2006,1,,46,3440950.8,0,0,0,,66.4,185.9,66.4,185.9,491.5,9.5,41.954554,-87.651379,POINT (-87.651379 41.954554),2021-164777,39,31,21186,577,37
2021,251760,"Walsh, John A -CPS",Exempt,2031 S Peoria St,60608,,true,LOWER WEST SIDE,K-12 School,73288,1992,1,,,,,,,,,,,,,,41.85437796,-87.64784268,POINT (-87.64784268 41.85437796),2021-251760,48,33,14920,250,8
2021,175479,,Not Submitted,5856 5860 N BROADWAY,60660,0.0,false,EDGEWATER,,95165,,,,,,,,,,,,,,,,41.99090057,-87.66660744,POINT (-87.66660744 41.99090057),2021-175479,16,76,4451,536,40
2021,251629,Bass Elementary -CPS,Exempt,6554 S May St,60621,,true,ENGLEWOOD,K-12 School,85881,1895,1,,,,,,,,,,,,,,41.774895,-87.6532,POINT (-87.6532 41.774895),2021-251629,2,66,21559,436,17
2021,256670,1 South Leavitt,Submitted,1 S Leavitt Street,,3.0,false,,Multifamily Housing,80144,2004,1,,70,1334706.2,2598960.7,0,0,,70.1,115.2,74.4,119.3,328.7,5.9,41.88425,-87.63245,POINT (-87.63245 41.88425),2021-256670,36,38,14310,92,22
2021,256835,Trailhead,Submitted,1744 N Western Ave,60645,4.0,false,,Multifamily Housing,152347,2018,1,,,1204920.5,805200,0,0,,14.5,30.5,15.3,31.3,214.9,1.6,42.012225,-87.69301,POINT (-87.69301 42.012225),2021-256835,27,20,22528,359,42
2021,173622,444 W Jackson,Submitted,444 W Jackson Blvd,60606,1.0,false,NEAR WEST SIDE,Fitness Center/Health Club/Gym,71235,1974,1,,,4468246,6719351.3,0,0,,157.1,274.7,165.7,283.7,995.1,14,41.87808768,-87.63895016,POINT (-87.63895016 41.87808768),2021-173622,36,29,14914,786,48
2021,255948,Spoke,Submitted,728 N Morgan St,60642,2.0,false,WEST TOWN,Multifamily Housing,420049,2017,2,,50,14116430.1,10118603.4,0,0,,69.8,144.3,71.6,146.3,2553.6,7.3,41.89598,-87.66056,POINT (-87.66056 41.89598),2021-255948,46,25,22620,521,41
2021,256557,1407 S. Michigan,Submitted,1411 S Michigan Avenue,60605,1.5,false,Near South Side,Mixed Use Property,110497,2018,1,,33,5793105.1,6081615.3,0,0,,146.1,278.2,148.1,277.2,1150.4,14.2,41.865858,-87.6195328,POINT (-87.6195328 41.865858),2021-256557,10,34,14913,374,48
2021,138379,6200 N Hiawatha Ave,Submitted,6200 N HIAWATHA AVE,60646,4.0,false,FOREST GLEN,Office,117780,1968,1,,100,316374.2,0,0,0,,2.7,7.5,,,45.2,0.4,41.99367467,-87.74969325,POINT (-87.74969325 41.99367467),2021-138379,38,12,22532,782,28
2021,251488,Esmond Elementary School,Submitted,1865 W Montvale Ave,60643,1.0,false,MORGAN PARK,K-12 School,53700,1891,3,,25,921730,5684139.3,0,0,,123,159.2,133.7,170.4,433.6,8.1,41.6887948,-87.66968662,POINT (-87.66968662 41.6887948),2021-251488,42,74,22212,378,33
2021,253996,(IL695) - The Pierre Condominium,Submitted,2100 N Lincoln Park West,60614,3.5,false,Lincoln Park,Multifamily Housing,230594,1916,1,,78,3636550.5,11014418,0,0,,77,114.3,80.5,116.7,1104.4,5.8,41.9217371,-87.65392,POINT (-87.65392 41.9217371),2021-253996,34,68,21190,797,16
2021,254355,Schreiber Center- ID#254355,Submitted,16 E PEARSON ST,60611,4.0,false,Near North Side,College/University,126000,2016,1,,,2167689.3,1866700,0,0,,32,63.7,33.9,65.8,408.8,3.2,41.89535128,-87.62272623,POINT (-87.62272623 41.89535128),2021-254355,36,37,21182,158,22
2021,252240,Presence Center for Advanced Care,Submitted,331 W Surf St,60657,,true,LAKE VIEW,Medical Office,373881,2015,1,,,16109198.4,19606533.3,0,0,,148.8,273.8,150.4,273,3342.2,13.9,41.93430593,-87.6384177,POINT (-87.6384177 41.93430593),2021-252240,25,57,4449,153,38
2021,251557,Mildred I Lavizzo Elementary School,Submitted,137 W 108th Pl,60628,1.0,false,ROSELAND,K-12 School,83900,1999,1,,17,3490274.7,3989140.1,0,0,,89.1,166.4,92.6,166.9,710.4,8.5,41.697071,-87.626522,POINT (-87.626522 41.697071),2021-251557,22,45,21861,524,45
2021,160450,Sono East - CO (ss78),Submitted,840 W Blackhawk St,60642,4.0,false,NEAR NORTH SIDE,Multifamily Housing,392548,2012,1,,95,5457811.3,12207771.7,0,0,,55.6,88.4,58,90.9,1427.9,4.5,41.908557,-87.649735,POINT (-87.649735 41.908557),2021-160450,11,37,22620,108,51
2021,256776,,Exempt,900 E GRAND AVE,60611,,true,Near North Side,,50000,,,,,,,,,,,,,,,,41.89535,-87.622775,POINT (-87.622775 41.89535),2021-256776,36,37,21182,158,22
2021,162318,StStan_School,Submitted,1255 N Noble St,60642,4.0,false,WEST TOWN,K-12 School,96858,1950,1,,97,805465.4,2508729.9,0,0,,34.2,50.5,38.4,55.5,248.3,2.6,41.90469462,-87.6625984,POINT (-87.6625984 41.90469462),2021-162318,11,25,22620,109,16
2021,103205,,Not Submitted,7260  S SOUTH SHORE DR,60649,0.0,false,SOUTH SHORE,,99523,,,,,,,,,,,,,,,,41.76259226,-87.57231648,POINT (-87.57231648 41.76259226),2021-103205,33,39,22538,453,32
2021,252126,08270 - Ford City 14,Submitted,7601 S Cicero Ave,60652,1.0,false,WEST LAWN,Movie Theater,72545,1990,1,,,6235842.9,3494720.1,0,0,,134.1,291.3,141.5,299,1076.3,14.8,41.75582921,-87.73699268,POINT (-87.73699268 41.75582921),2021-252126,30,63,4300,318,23
2021,172640,232-Senior Suites of Washington Heights,Submitted,832 890 W 103RD ST,60643,3.0,false,WASHINGTON HEIGHTS,Senior Living Community,65505,2001,1,,50,1717532.6,4273400.2,0,0,,91.5,141.9,97.9,147.7,472.3,7.2,41.6981819,-87.66236671,POINT (-87.66236671 41.6981819),2021-172640,42,74,22212,380,33
2021,221086,1500 Lakeshore Drive Building Corp.,Submitted,1500 N Lakeshore Dr,60610,4.0,false,NEAR NORTH SIDE,Multifamily Housing,303734,1928,1,,61,5872686.6,18234687.1,0,0,,84,123.9,90.7,129.2,1807.3,6.3,41.90981067,-87.62674615,POINT (-87.62674615 41.90981067),2021-221086,34,37,14926,308,51
2021,250100,Lorraine Hansberry Senior Apartments,Not Submitted,5670 W Lake St,60644,0.0,false,AUSTIN,Multifamily Housing,106272,1976,1,,,,,,,,,,,,,,41.88836882,-87.76678586,POINT (-87.76678586 41.88836882),2021-250100,7,26,22216,672,52
2021,254102,(IL380) - Residences at The Vic,Submitted,3140 N Sheffield Ave,60657,4.0,false,Lake View,Multifamily Housing,148500,2007,1,,82,3458379.3,3107138.4,0,0,,55.8,110.1,57.8,112.2,659,5.6,41.9393396,-87.65423,POINT (-87.65423 41.9393396),2021-254102,25,57,4449,680,38
2021,117311,Chicago-Lakeshore,Submitted,6130  N SHERIDAN RD,60660,4.0,false,EDGEWATER,Other - Specialty Hospital,80684,2000,1,,,6516438.9,10431958.2,0,0,,210.1,361.9,225.4,373.3,1484.8,18.4,41.99090057,-87.66660744,POINT (-87.66660744 41.99090057),2021-117311,16,76,4451,536,40
2021,156576,Rice Building,Submitted,815 W Van Buren St,60607,2.5,false,NEAR WEST SIDE,Office,80610,1910,1,,60,2784983.6,3074557.2,0,0,,72.7,136.8,77.2,141.5,561.1,7,41.87638333,-87.64804242,POINT (-87.64804242 41.87638333),2021-156576,26,29,14917,97,48
2021,251642,James G Blaine Elementary School,Submitted,1420 W Grace St,60613,2.5,false,LAKE VIEW,K-12 School,98646,1893,3,,60,1710085.2,5271930.2,0,0,,70.8,104.7,79.3,115.4,524.3,5.3,41.95097289,-87.66504977,POINT (-87.66504977 41.95097289),2021-251642,25,57,21186,724,38
2021,172448,,Not Submitted,100 118 N PULASKI RD,60624,0.0,false,WEST GARFIELD PARK,,123991,,,,,,,,,,,,,,,,41.8808242,-87.72327934,POINT (-87.72327934 41.8808242),2021-172448,23,27,21572,658,11
2021,251649,William H Ryder Math & Science Specialty ES,Submitted,8716 S Wallace St,60620,2.0,false,AUBURN GRESHAM,K-12 School,73326,1912,2,,42,1570761.3,4644000,0,0,,84.8,126.5,92.2,134.3,471,6.4,41.73526106,-87.6395147,POINT (-87.6395147 41.73526106),2021-251649,13,70,21554,608,18
2021,238097,111 South Morgan,Submitted,111 S Morgan St,60607,4.0,false,NEAR WEST SIDE,Multifamily Housing,271138,2003,1,,83,5142447,6358737.5,0,0,,60.4,110.6,62,110.9,1072.2,5.6,41.8796953,-87.65162494,POINT (-87.65162494 41.8796953),2021-238097,26,29,14917,91,48
2021,100179,Saint Anthony Hospital - Main Hospital,Submitted,2875 W 19th St,60623,2.5,false,SOUTH LAWNDALE,Hospital (General Medical & Surgical),450612,1897,1,,56,23712134.1,44202524.7,0,0,,284.1,471.9,290.8,473.5,5734.5,24,41.85513555,-87.6978405,POINT (-87.6978405 41.85513555),2021-100179,1,32,21569,203,29
2021,174249,Westport Commons - Ultra Foods,Not Submitted,3250 W 87th St,60652,0.0,false,ASHBURN,Supermarket/Grocery Store,213066,1992,1,,,,,,,,,,,,,,41.735136,-87.70614765,POINT (-87.70614765 41.735136),2021-174249,30,69,4300,198,6
2021,254154,Swartzberg House,Submitted,3101 W Touhy Ave,60645,2.5,false,West Ridge,Multifamily Housing,95230,1980,1,,58,1448690.8,5264600.1,0,0,,80.2,114.5,87.4,121.2,486.5,5.8,41.8842525,-87.63245,POINT (-87.63245 41.8842525),2021-254154,36,38,14310,92,22
2021,128321,,Not Submitted,2315  W LEMOYNE ST,60622,0.0,false,WEST TOWN,,76497,,,,,,,,,,,,,,,,41.90225377,-87.68447845,POINT (-87.68447845 41.90225377),2021-128321,11,25,21560,541,16
2021,253955,550 W Fulton Condo Assoc.,Submitted,550 W Fulton,60661,4.0,false,NEAR WEST SIDE,Multifamily Housing,76037,1999,1,,88,1257970.3,2901527.8,0,0,,65.2,103,68.9,105.4,333.8,5.2,41.8832102,-87.64337484,POINT (-87.64337484 41.8832102),2021-253955,36,29,4452,784,22
2021,159099,Sofitel Chicago Water Tower,Submitted,20 E Chestnut St,60611,0.0,false,NEAR NORTH SIDE,Hotel,377000,2002,1,,,0,0,0,0,,,,,,,,41.89869734,-87.62731284,POINT (-87.62731284 41.89869734),2021-159099,11,37,21182,104,22
2021,105070,,Not Submitted,1548 1558 W JUNEWAY TER,60626,0.0,false,ROGERS PARK,,58791,,,,,,,,,,,,,,,,42.01036185,-87.66829765,POINT (-87.66829765 42.01036185),2021-105070,5,10,21853,358,3
2021,101720,131 S. Dearborn 3,Submitted,131 S Dearborn,60603,3.0,false,LOOP,Office,1778504,2002,1,,68,140809555,84598.3,0,0,,85.3,238.6,86.8,242.9,20115.8,12.2,41.87980869,-87.62854911,POINT (-87.62854911 41.87980869),2021-101720,36,38,14311,92,22
2021,242655,Ten East Delaware,Submitted,10 E Delaware Pl,60611,3.5,false,NEAR NORTH SIDE,Multifamily Housing,449653,2009,1,,53,11492121,12847883.6,0,0,,65.7,123.2,67.9,125.5,2323.8,6.3,41.89939252,-87.62790258,POINT (-87.62790258 41.89939252),2021-242655,36,37,21182,104,22
2021,250147,820 W Jackson Blvd,Not Submitted,820 W Jackson Blvd,60607,0.0,false,NEAR WEST SIDE,Office,175086,1915,1,,,,,,,,,,,,,,41.8782695,-87.64808396,POINT (-87.64808396 41.8782695),2021-250147,46,29,14917,91,41
2021,102232,2800 Lake Shore Drive Condo Association (102232),Submitted,2800 N Lake Shore Dr,60657,4.0,false,LAKE VIEW,Multifamily Housing,852820,1969,1,,81,9145886.5,48935882.8,0,0,,76.6,101.6,83.6,107.6,3905.5,5.2,41.93329168,-87.63716558,POINT (-87.63716558 41.93329168),2021-102232,25,57,4449,103,38
2021,172788,Lake Meadows 4,Submitted,3440  S COTTAGE GROVE AVE,60616,1.0,false,DOUGLAS,Multifamily Housing,107500,1952,1,,2,1077848.8,19593728.3,0,0,,192.3,219.5,209.4,236.8,1194.7,11.1,41.84550365,-87.63055693,POINT (-87.63055693 41.84550365),2021-172788,48,35,21194,346,26
2021,243527,RiverView Condominium Association,Submitted,445 E North Water St,60611,2.5,false,NEAR NORTH SIDE,Multifamily Housing,1135720,2000,2,,52,26483654,21800863.1,0,0,,58.1,116.8,57.8,114,4940.5,5.9,41.88925047,-87.61594682,POINT (-87.61594682 41.88925047),2021-243527,36,37,21182,159,22
2021,251900,Jonathan Y Scammon Elementary School,Submitted,4201 W Henderson St,60641,3.5,false,IRVING PARK,K-12 School,85474,1926,5,,78,1755932.2,2043389.9,0,0,,44.5,82.6,48.6,88.3,359.3,4.2,41.94126828,-87.73387796,POINT (-87.73387796 41.94126828),2021-251900,21,16,22618,329,27
2021,256773,,Not Submitted,1604 N RICHMOND ST,60647,0.0,false,West Town,,50000,,,,,,,,,,,,,,,,41.921025,-87.691375,POINT (-87.691375 41.921025),2021-256773,41,23,22535,323,24
2021,158224,The Shoreham at Lakeshore East,Submitted,400 E South Water St,60601,1.5,false,LOOP,Multifamily Housing,458305,2005,1,,37,13005455.6,27222116.7,0,0,,93.5,151,98.3,154.5,3303.4,7.7,41.88673811,-87.61677077,POINT (-87.61677077 41.88673811),2021-158224,36,38,14309,580,22
2021,103727,,Not Submitted,5040 5060 N BROADWAY,60640,0.0,false,UPTOWN,,436961,,,,,,,,,,,,,,,,41.97411618,-87.66026911,POINT (-87.66026911 41.97411618),2021-103727,18,31,22616,633,37
2021,159733,Sheridan-Gunnison Apts.,Submitted,4827 N SHERIDAN RD,60640,4.0,false,UPTOWN,Multifamily Housing,189225,1967,1,,65,2912970.1,11868665.2,0,0,,90.1,125.7,97.5,133.4,1046.5,6.4,41.96968174,-87.6544131,POINT (-87.6544131 41.96968174),2021-159733,39,31,22616,635,40
2021,128905,Clayton Residential Home Inc,Submitted,2026  N CLARK ST,60614,2.0,false,LINCOLN PARK,Residential Care Facility,61757,1928,1,,,2265469.1,8211000.7,0,0,,169.6,242.3,181.9,253.6,759.7,12.3,41.92201051,-87.65461957,POINT (-87.65461957 41.92201051),2021-128905,34,68,21190,797,16
2021,104879,2600 N Hampden,Submitted,2600  N HAMPDEN CT,60614,4.0,false,LINCOLN PARK,Multifamily Housing,90000,2005,1,,84,2435175.1,0,0,0,,37.5,104.9,38.9,109,347.8,5.4,41.92201051,-87.65461957,POINT (-87.65461957 41.92201051),2021-104879,34,68,21190,797,16
2021,114196,1550 State Parkway Condominium Association,Submitted,1544 1554 N STATE PKWY,60610,2.0,false,NEAR NORTH SIDE,Multifamily Housing,104400,1912,1,,50,2204494.2,7064458.4,0,0,,88.8,130.2,94.9,135,690.1,6.6,41.9037528,-87.63558845,POINT (-87.63558845 41.9037528),2021-114196,46,37,14926,148,41
2021,256817,4400 Grove Apartments - North Bldg,Submitted,4424 S COTTAGE GROVE AVE,60653,4.0,false,Grand Boulevard,Multifamily Housing,57149,2020,1,,94,766220.9,1652516.6,0,0,,42.3,67.9,43.9,68.6,197.2,3.5,41.816805,-87.607775,POINT (-87.607775 41.816805),2021-256817,10,4,4301,583,1
2021,106027,Three Belmont,Submitted,505  W BELMONT AVE,60657,4.0,false,LAKE VIEW,Multifamily Housing,51480,1925,1,,95,1451353.2,1389915.6,0,0,,55.2,107.3,57.4,112,281.1,5.5,41.9398511,-87.65844752,POINT (-87.65844752 41.9398511),2021-106027,25,57,4449,710,38
2021,251315,"00202- Chicago, IL",Submitted,2550 N Clybourn St,60614,3.5,false,LINCOLN PARK,Supermarket/Grocery Store,85209,2013,1,,53,11178865.3,7285700.2,0,0,,216.7,457.1,223.6,461.8,1983.6,23.3,41.92777731,-87.67299035,POINT (-87.67299035 41.92777731),2021-251315,40,68,21190,743,16
2021,232062,Prairie District Homes Tower Residences Condominium Association,Submitted,1717 S Prairie Ave,60616,2.5,false,NEAR SOUTH SIDE,Multifamily Housing,343068,2003,1,,32,8158163.7,15064665.9,0,0,,79.8,132.8,85.6,139,1965.4,6.8,41.85847515,-87.61984803,POINT (-87.61984803 41.85847515),2021-232062,9,34,21194,374,48
2021,175421,7219 N Sheridan Rd,Submitted,7219  N SHERIDAN RD,60626,1.0,false,ROGERS PARK,Multifamily Housing,52998,1928,1,,20,738292,5409892.8,0,0,,116,146.2,127,156.4,392.8,7.4,42.01036185,-87.66829765,POINT (-87.66829765 42.01036185),2021-175421,5,10,21853,358,3
2021,256634,The Burnham at Woodlawn Park,Submitted,6134 S. Cottage Grove Avenue,,2.0,false,,Multifamily Housing,73673,2015,1,,50,2803544.6,1002891.8,0,0,,51.7,117.6,53.6,120.4,453.7,6.2,41.88425,-87.63245,POINT (-87.63245 41.88425),2021-256634,36,38,14310,92,22
2021,251925,Peter V. Byrne Hall,Submitted,2219 N Kenmore Ave,60614,4.0,false,LINCOLN PARK,College/University,77485,1968,1,,,1694931.5,7392620.8,0,0,,117.3,161.4,128.1,171.5,634.7,8.2,41.922073,-87.654665,POINT (-87.654665 41.922073),2021-251925,34,68,21190,797,16
2021,172343,T2613 - Chicago Division,Submitted,1200 N Larrabee St,60610,3.0,false,NEAR NORTH SIDE,Commerce de dtail,190487,2013,1,,61,9255732.4,5276700.2,0,0,,76.3,165.1,78.2,165.5,1602.2,8.4,41.903766,-87.64324,POINT (-87.64324 41.903766),2021-172343,46,37,14926,108,41
2021,113335,Ravinia Lofts Condominium Association,Submitted,2024 2030 S WABASH AVE,60616,4.0,false,NEAR SOUTH SIDE,Multifamily Housing,77000,1920,1,,89,1254664.1,2426900.4,0,0,,59.9,98.6,62.8,100.1,308.1,5,41.84550365,-87.63055693,POINT (-87.63055693 41.84550365),2021-113335,48,35,21194,346,26
2021,173907,Hampton House Condominiums,Submitted,1715 1733 E 53RD ST,60615,4.0,false,HYDE PARK,Multifamily Housing,176450,1918,1,,66,1943227.1,11344029.9,0,0,,75.3,98.3,81.5,104.2,880.1,5,41.80224043,-87.60332678,POINT (-87.60332678 41.80224043),2021-173907,33,8,21192,147,1
2021,102397,Walsh Park Apartments,Submitted,1734  N PAULINA ST,60622,3.5,false,WEST TOWN,Multifamily Housing,95110,1984,1,,73,3310161.4,2056440.5,0,0,,56.4,120.2,59.1,124.9,582,6.1,41.90225377,-87.68447845,POINT (-87.68447845 41.90225377),2021-102397,11,25,21560,541,16
2021,114866,"Barclay Condominium Home Owners' Association, Inc",Submitted,4940  S EASTEND AVE,60615,3.5,false,KENWOOD,Multifamily Housing,146840,1928,1,,80,1621140.1,9483728.5,0,0,,75.6,98.7,82.5,105,735.3,5,41.80224043,-87.60332678,POINT (-87.60332678 41.80224043),2021-114866,33,8,21192,147,1
2021,160099,The Peninsula Chicago,Submitted,108 E Superior St,60611,2.0,false,NEAR NORTH SIDE,Hotel,410081,2000,1,,17,36661257.6,16326399.8,0,0,,129.2,292.1,131.4,294.5,6103.4,14.9,41.895753,-87.625059,POINT (-87.625059 41.895753),2021-160099,36,37,21182,626,22
2021,101901,1123 The Allegro Royal Sonesta Hotel 171 W Randolph,Submitted,151 171 W Randolph St,60601,1.0,false,LOOP,Hotel,383168,1926,1,,30,8764216.7,54905797,0,18621120.5,,214.8,258.7,226.6,271.2,5149.4,13.4,41.8841082,-87.63304764,POINT (-87.63304764 41.8841082),2021-101901,36,38,14310,92,22
2021,112607,6118 Sheridan Road Condominium Homeowners Association,Submitted,6118  N SHERIDAN RD,60660,1.0,false,EDGEWATER,Multifamily Housing,102000,1960,1,,17,2305385.7,11271123,0,0,,133.1,179.3,146.4,191.8,927.9,9.1,41.99090057,-87.66660744,POINT (-87.66660744 41.99090057),2021-112607,16,76,4451,536,40
2021,164102,First Presbyterian Church,Not Submitted,6400 S Kimbark Ave,60637,0.0,false,WOODLAWN,Worship Facility,50000,1928,1,,,,,,,,,,,,,,41.77840382,-87.59508184,POINT (-87.59508184 41.77840382),2021-164102,4,9,22260,27,53
2021,148480,The Larrabee Condominium Association,Submitted,865  N LARRABEE ST,60610,3.0,false,NEAR NORTH SIDE,Multifamily Housing,80457,2006,1,,65,1839711.5,3167877.7,0,0,,62.2,105.4,63.2,104.5,431,5.4,41.9037528,-87.63558845,POINT (-87.63558845 41.9037528),2021-148480,46,37,14926,148,41
2021,127031,016910 - Old Town Square,Submitted,424 W DIVISION ST,60610,4.0,false,NEAR NORTH SIDE,Strip Mall,201185,1998,2,,,197655.7,0,0,0,,2.1,5.8,2.2,6.1,28.2,0.3,41.90515014,-87.63936869,POINT (-87.63936869 41.90515014),2021-127031,46,37,14926,309,41
2021,256562,,Not Submitted,450 N Morgan St,60642,0.0,false,West Town,,57600,,,,,,,,,,,,,,,,41.89465648,-87.6548,POINT (-87.6548 41.89465648),2021-256562,46,25,22620,522,41
2021,158433,Clinton Street Lofts,Submitted,226 N Clinton St,60661,3.5,false,NEAR WEST SIDE,Multifamily Housing,188400,1885,1,,80,4097651.6,5147647.2,0,0,,66.2,120.8,66.6,119,858.7,6.1,41.8860179,-87.64181202,POINT (-87.64181202 41.8860179),2021-158433,36,29,4452,784,22
2021,171887,1820 N Spaulding,Submitted,1824 N SPAULDING AVE,60647,4.0,false,LOGAN SQUARE,Multifamily Housing,65000,2015,1,,86,1064192.6,2859257,0,0,,60.4,92,63.7,93.6,303.9,4.7,41.92075046,-87.70152825,POINT (-87.70152825 41.92075046),2021-171887,41,23,22535,322,15
2021,172065,CICERO ANNEX,Submitted,8101 8141 S CICERO AVE,60652,4.0,false,ASHBURN,Strip Mall,141423,1950,1,,,418358.3,1329387.6,0,0,,26.3,38.7,28.9,40.9,130.4,2,41.74475997,-87.74025403,POINT (-87.74025403 41.74475997),2021-172065,30,69,4300,235,23
2021,100320,"IMDC LAPORTE, LLC",Submitted,4039 4051 N LAPORTE AVE,60641,4.0,false,PORTAGE PARK,Multifamily Housing,96000,1934,1,,94,344536.9,4745400.4,0,0,,53,62,58.8,67.8,301.3,3.1,41.94615136,-87.74707694,POINT (-87.74707694 41.94615136),2021-100320,21,15,22618,360,25
2021,250041,Collins Academy High School,Submitted,1313 S Sacramento Blvd,60623,1.0,false,NORTH LAWNDALE,K-12 School,206018,1976,3,,9,9961770.7,15439928.9,0,0,,123.3,214.1,130.8,220.1,2242.9,10.9,41.86436444,-87.70082786,POINT (-87.70082786 41.86436444),2021-250041,14,30,21569,132,36
2021,173961,Chatham Park South Co-Op,Submitted,660  E 85TH ST,60619,3.5,false,CHATHAM,Multifamily Housing,75634,1983,1,,56,3035867.3,1891841.4,0,0,,65.5,139.3,68.7,145.9,534.1,7.1,41.74401302,-87.60549928,POINT (-87.60549928 41.74401302),2021-173961,35,40,21546,140,31
2021,253962,Moser Building Condominium Association,Submitted,621 S Plymouth Ct,60605,4.0,false,Loop,Multifamily Housing,144649,1915,1,,98,1668280.3,4355267.3,0,0,,41.6,63.9,44.3,65.7,469.6,3.2,41.8684207,-87.62414082,POINT (-87.62414082 41.8684207),2021-253962,10,38,14913,368,48
2021,156731,Seventy East,Submitted,70 E Lake St,60601,3.5,false,LOOP,Office,154373,1927,1,,79,6293123.5,0,0,0,,40.8,114.1,43.4,121.6,898.8,5.8,41.8857976,-87.62554085,POINT (-87.62554085 41.8857976),2021-156731,36,38,14309,580,22
2021,175383,Chicago Metropolitan Housing Development Corporation,Submitted,5152 5178 S KING DR,60615,3.0,false,WASHINGTON PARK,Multifamily Housing,58656,1915,1,,68,378274.8,3838984.4,0,0,,71.9,86.8,78.3,93.1,257.9,4.4,41.80224043,-87.60332678,POINT (-87.60332678 41.80224043),2021-175383,33,8,21192,147,1
2021,162360,Jordan Elementary Community School,Submitted,7414 N Wolcott Ave,60626,1.0,false,ROGERS PARK,K-12 School,66950,1993,1,,21,1942896.9,4798130.1,0,0,,100.7,156.5,110,164.7,532.3,8,42.01711706,-87.67802784,POINT (-87.67802784 42.01711706),2021-162360,5,10,21853,52,3
2021,255003,"L - Logan Square Apartment Community 
Navigator Taproom",Not Submitted,2211 N MILWAUKEE AVE,60647,0.0,false,Logan Square,,119727,,,,,,,,,,,,,,,,41.92105626,-87.69421012,POINT (-87.69421012 41.92105626),2021-255003,41,23,22535,294,24
2021,260060,2300 N Commonwealth,Submitted,2300 2320 N COMMONWEALTH AVE,60614,4.0,false,LINCOLN PARK,Multifamily Housing,68974,1991,1,,84,1570915.5,2114198.3,0,0,,65.7,118,68.5,118,336.7,6,41.92201051,-87.65461957,POINT (-87.65461957 41.92201051),2021-260060,34,68,21190,797,16
2021,173831,YMCA of Metro Chicago,Not Submitted,3333 N MARSHFIELD AVE,60657,0.0,false,LAKE VIEW,,93228,,,,,,,,,,,,,,,,41.94246355,-87.66961411,POINT (-87.66961411 41.94246355),2021-173831,18,57,4449,742,38
2021,173497,Shop & Save Market - Nagle,Submitted,6312 N Nagle Ave,60646,0.0,false,NORWOOD PARK,Supermarket/Grocery Store,66711,1987,1,,,0,0,0,0,,,,,,,,41.99589087,-87.78753092,POINT (-87.78753092 41.99589087),2021-173497,29,36,22532,657,34
2021,256733,Michael M Byrne Elementary School,Submitted,5329 S Oak Park Avenue,60656,2.5,false,,K-12 School,78340,1935,4,,60,1896600.5,2321210,0,0,,53.8,98.9,57.3,102.5,394.2,5,41.975525,-87.8018,POINT (-87.8018 41.975525),2021-256733,29,36,4448,700,34
2021,103745,900 North Michigan,Submitted,900 North Michigan,60611,,true,NEAR NORTH SIDE,Mixed Use Property,2731896,1989,1,,,137920137,34033643,0,0,,80.5,197.5,82.3,201.4,21506.3,10.1,41.89920885,-87.62650606,POINT (-87.62650606 41.89920885),2021-103745,36,37,21182,104,22
2021,103743,33 N. Dearborn,Submitted,33 N Dearborn St,60602,3.5,false,LOOP,Office,372137,1966,1,,79,7970817.6,12964338.9,0,7993883.9,,77.7,116.1,78.9,117.9,2248.3,6,41.88287054,-87.62903883,POINT (-87.62903883 41.88287054),2021-103743,36,38,14310,92,22
2021,101039,Marshall Metro HS -CPS,Exempt,3250 W Adams St,60624,,true,EAST GARFIELD PARK,K-12 School,366981,1927,1,,,,,,,,,,,,,,41.87909618,-87.70740611,POINT (-87.70740611 41.87909618),2021-101039,23,28,21572,765,11
2021,173768,813-31 West Waveland,Submitted,813 831 W WAVELAND AVE,60613,4.0,false,LAKE VIEW,Multifamily Housing,50000,1925,1,,87,940775.1,1710408.3,0,0,,53,88.6,55.9,91.6,225.2,4.5,41.95402016,-87.6620278,POINT (-87.6620278 41.95402016),2021-173768,18,57,21186,725,13
2021,254166,Crown Center-ID#254166,Submitted,1001 1025 W Loyola Ave,60626,4.0,false,Rogers Park,College/University,81740,1984,1,,,3124260.2,3215912.8,0,0,,77.6,148.3,80.5,147,617,7.5,42.0015891,-87.65674,POINT (-87.65674 42.0015891),2021-254166,5,10,21853,267,3
2021,254016,Prete Apartments,Submitted,5801 N Pulaski Rd - Bldg E,60646,4.0,false,North Park,Residential Care Facility,55866,1991,1,,,1801687.8,2110482.1,0,0,,70,130,74.4,134.8,369.4,6.6,41.9995854,-87.77148,POINT (-87.77148 41.9995854),2021-254016,29,12,22532,781,34
2021,158142,Lake Shore Plaza,Submitted,445 E Ohio St,60611,1.0,false,NEAR NORTH SIDE,Multifamily Housing,415260,1985,1,,9,23009937.7,17450000,0,0,,97.4,199.3,101.5,203.6,4213.3,10.1,41.89224062,-87.61627223,POINT (-87.61627223 41.89224062),2021-158142,36,37,21182,534,22
2021,175223,FM Property LLC,Submitted,833 857 W FULTON MARKET,60607,,true,NEAR WEST SIDE,Multifamily Housing,76596,1900,1,,,4022171.4,9166797,0,0,,224.6,355.6,231.5,357.8,1061.4,18.1,41.87399385,-87.651678,POINT (-87.651678 41.87399385),2021-175223,48,29,14917,97,8
2021,160142,U.S. Cellular Plaza - 8430 _ Goby LLC,Submitted,8430 W Bryn Mawr Ave,60631,4.0,false,OHARE,Office,200150,1981,1,,95,4283018.8,0,0,0,,21.4,59.9,21.4,59.9,611.7,3.1,41.981131,-87.837979,POINT (-87.837979 41.981131),2021-160142,29,75,22243,64,34
2021,106223,4521-23 North Malden Street,Submitted,4521 4523 N MALDEN ST,60640,4.0,false,UPTOWN,Multifamily Housing,51840,1988,1,,91,540386.8,2548789.2,0,0,,59.6,80.8,63.8,85.2,212.6,4.1,41.97223008,-87.6645957,POINT (-87.6645957 41.97223008),2021-106223,18,31,22616,633,37
2021,252328,5630 N Sheridan,Submitted,5630 N Sheridan Ave,60660,3.5,false,EDGEWATER,Multifamily Housing,259996,1957,1,,76,3211910.1,18350598.4,0,0,,89.8,117.8,97.8,126.1,1433.4,6,41.98474511,-87.65522225,POINT (-87.65522225 41.98474511),2021-252328,16,76,4451,14,40
2021,239540,(IL487) - The Gold Coast,Submitted,71 E DIVISION ST,60610,4.0,false,NEAR NORTH SIDE,Multifamily Housing,199712,1970,1,,89,4664340.5,2924613,0,0,,38,80.8,39.5,83.2,821.5,4.1,41.90376285,-87.62612567,POINT (-87.62612567 41.90376285),2021-239540,11,37,21182,105,22
2021,256434,Keating Hall,Submitted,3040 S Wabash Avenue,60616,2.0,false,DOUGLAS,College/University,53163,1967,1,,,1924228.1,64367999,0,0,,1247,1372.7,1247.5,1374.2,3693.7,69.5,41.842325,-87.62715344,POINT (-87.62715344 41.842325),2021-256434,9,1,21194,377,12
2021,256546,New Life Covenent Church-SE,Not Submitted,7621 S Greenwood Ave,60619,0.0,false,Greater Grand Crossing,,85000,,,,,,,,,,,,,,,,41.743965,-87.605245,POINT (-87.605245 41.743965),2021-256546,32,40,21546,140,31
2021,254262,Sunnycourt Condominiums,Submitted,906 934 W Sunnyside,60640,1.5,false,Uptown,Multifamily Housing,75600,1926,1,,36,803505.9,6696854.2,0,0,,99.2,122.8,105.9,129,470.5,6.2,41.9726457,-87.66491,POINT (-87.66491 41.9726457),2021-254262,18,31,22616,633,37
2021,109573,Casa Bonita Condominium Association,Submitted,7340 7352 N RIDGE BLVD,60645,1.0,false,WEST RIDGE,Multifamily Housing,110000,1920,1,,21,751066.5,10462674.5,0,0,,101.9,119,113.3,130.4,663,6,42.00880199,-87.69502812,POINT (-87.69502812 42.00880199),2021-109573,27,20,22528,42,42
2021,256544,One Bennett Park,Submitted,451 E Grand Ave,60611,3.5,false,Near North Side,Multifamily Housing,785000,2018,1,,75,18358334.2,25179461,0,0,,55.5,99.2,58.5,102.3,3959.5,5,41.898405,-87.622625,POINT (-87.622625 41.898405),2021-256544,11,37,21182,233,22
2021,101762,RICHARD J. DALEY CENTER,Submitted,50 W Washington,60602,3.0,false,LOOP,Courthouse,1593714,1965,1,,68,50201882,63999339.4,0,0,,74.1,134.8,79.3,140.2,10569.5,6.9,41.88409726,-87.63019634,POINT (-87.63019634 41.88409726),2021-101762,36,38,14310,92,22
2021,251719,Laughlin Falconer Elementary School,Submitted,3020 N Lamon Ave,60641,2.0,false,BELMONT CRAGIN,K-12 School,165513,1919,2,,46,4034014.4,8164059.9,0,0,,73.7,120,80.6,127.3,1009.8,6.1,41.93560317,-87.74994734,POINT (-87.74994734 41.93560317),2021-251719,17,19,22618,355,7
2021,252070,Lake Village East,Submitted,4700 S Lake Park Ave,60615,3.5,false,KENWOOD,Multifamily Housing,180000,1971,3,,77,3505973.3,10698599.8,0,0,,78.9,116.9,83.1,120.2,1069,5.9,41.8093257,-87.59248161,POINT (-87.59248161 41.8093257),2021-252070,10,5,21192,356,1
2021,254009,Maple Court Apartments,Submitted,1120 1126 E 47th St,60653,1.0,false,Kenwood,Multifamily Housing,50760,1915,1,,17,451656.7,6158509.8,0,0,,130.2,152.3,143.4,165.3,391.6,7.7,41.8202295,-87.61187,POINT (-87.61187 41.8202295),2021-254009,10,4,4301,583,1
2021,174323,Letterman Chicago,Submitted,410  S MORGAN ST,60607,1.0,false,NEAR WEST SIDE,Multifamily Housing,250000,2006,1,,,7777650.6,14456483.2,0,0,,98.8,164.3,105.1,170.9,1878.7,8.3,41.87399385,-87.651678,POINT (-87.651678 41.87399385),2021-174323,48,29,14917,97,8
2021,175808,Romanian Village,Submitted,5161  N ASHLAND AVE,60640,2.5,false,Uptown,Multifamily Housing,70000,1923,1,,31,1311794.6,5109980.5,0,0,,91.7,129.1,96.9,133.2,458.8,6.6,41.9722301,-87.6646,POINT (-87.6646 41.9722301),2021-175808,18,31,22616,633,37
2021,105921,1246 Pratt LLC,Submitted,1246 1248 W PRATT BLVD,60626,4.0,false,ROGERS PARK,Multifamily Housing,65419,1934,1,,82,1338983.8,4136524.2,0,0,,83.7,123.7,90.4,130,411,6.3,42.01036185,-87.66829765,POINT (-87.66829765 42.01036185),2021-105921,5,10,21853,358,3
2021,250027,Garfield Park Conservatory,Not Submitted,300 N Central Park Ave,60624,0.0,false,EAST GARFIELD PARK,Other,419907,1908,15,,,,,,,,,,,,,,41.88626194,-87.7179624,POINT (-87.7179624 41.88626194),2021-250027,23,28,21572,176,11
2021,254381,Campus North Residential Commons,Submitted,5500 S UNIVERSITY AVE,60637,3.5,false,Hyde Park,Residence Hall/Dormitory,419219,2016,1,,74,10610003,16516590.9,0,8898697.4,,85.9,131.6,88.2,135.3,2861.6,6.8,41.78040086,-87.60270024,POINT (-87.60270024 41.78040086),2021-254381,4,9,22260,347,53
2021,158407,CCC District Office,Not Submitted,226 W Jackson Blvd,60606,0.0,false,LOOP,Office,226546,1904,1,,,,,,,,,,,,,,41.87843051,-87.63488331,POINT (-87.63488331 41.87843051),2021-158407,36,38,14914,92,48
2021,236345,"The Private Residences at Ontario Place, a Condominium",Submitted,10 E Ontario St,60611,1.0,false,NEAR NORTH SIDE,Multifamily Housing,690169,1983,1,,13,38372000.3,9260060.6,0,0,,97,238.6,99.4,244.2,5972.4,12.2,41.893322,-87.62772,POINT (-87.62772 41.893322),2021-236345,36,37,21182,626,22
2021,119914,N002301-CHICAGO (83RD & STEWART) IL,Submitted,8411 S HOLLAND RD,60620,4.0,false,CHATHAM,Retail Store,191204,2007,1,,74,4287082.5,3933227.1,0,0,,70.9,139.2,75.9,144.4,821.2,7.1,41.74032788,-87.63113941,POINT (-87.63113941 41.74032788),2021-119914,13,40,21554,1,18
2021,251229,210 East Pearson Condominium Association,Submitted,210 E Pearson,60611,4.0,false,NEAR NORTH SIDE,Multifamily Housing,104142,1926,1,,71,1616056.3,7483439,0,0,,87.4,118.9,94.1,124.7,628.3,6,41.89778059,-87.62117844,POINT (-87.62117844 41.89778059),2021-251229,11,37,21182,233,22
2021,256759,,Not Submitted,1533 W.Warren Blvd,,0.0,false,,,57390,,,,,,,,,,,,,,,,41.88425,-87.63245,POINT (-87.63245 41.88425),2021-256759,36,38,14310,92,22
2021,116662,Lake Meadows 2,Submitted,533  E 33RD PL,60616,1.0,false,DOUGLAS,Multifamily Housing,107500,1952,1,,2,1078093.7,20605158.3,0,0,,201.7,229.3,220,247.9,1248.4,11.6,41.84550365,-87.63055693,POINT (-87.63055693 41.84550365),2021-116662,48,35,21194,346,26
2021,251397,John L Marsh Elementary School,Submitted,9804 S Exchange,60617,2.5,false,SOUTH DEERING,K-12 School,140770,1910,2,,52,3581777.7,5116980.2,0,0,,61.8,109.4,65.9,113.7,783.4,5.6,41.717144,-87.552401,POINT (-87.552401 41.717144),2021-251397,47,48,21202,526,47
2021,256440,IIT Research Tower,Submitted,10 W 35th Street,60616,2.0,false,DOUGLAS,College/University,392894,1964,1,,,16101951.3,190390,33417173.4,0,,126.5,217.6,135.6,226.5,4528.7,11.5,41.842325,-87.62715344,POINT (-87.62715344 41.842325),2021-256440,9,1,21194,377,12
2021,252088,Pueblo Commons Condominium Association,Submitted,8444 W Wilson Ave,60656,4.0,false,OHARE,Multifamily Housing,216000,1960,4,,96,1250822.5,10163700.3,0,0,,52.8,65.6,57.2,69.7,718.5,3.3,41.96376382,-87.83852632,POINT (-87.83852632 41.96376382),2021-252088,19,75,4448,130,39
2021,159745,Clarendon Court Apartments,Submitted,4500 N CLARENDON AVE,60640,3.5,false,UPTOWN,Multifamily Housing,110000,1980,1,,60,3078445.3,5571445.6,0,0,,78.6,131.5,83.5,136.7,735.6,6.7,41.96394063,-87.65039391,POINT (-87.65039391 41.96394063),2021-159745,39,31,22616,20,37
2021,244318,The Edge Lofts & Tower Condominium Association,Submitted,210 S Des Plaines St,60661,0.0,false,NEAR WEST SIDE,Multifamily Housing,353135,2004,1,,,0,0,0,0,,,,,,,,41.87894567,-87.64445559,POINT (-87.64445559 41.87894567),2021-244318,36,29,4452,786,48
2021,251383,"Mcnair Academy Center, Ronald E -CPS",Exempt,4820 W Walton St,60651,,true,AUSTIN,K-12 School,98596,2001,1,,,,,,,,,,,,,,41.89802143,-87.7469857,POINT (-87.7469857 41.89802143),2021-251383,45,26,4299,578,4
2021,175824,Drexel - Avanath,Submitted,6140  S DREXEL AVE,60637,1.0,false,WOODLAWN,Multifamily Housing,105309,1959,1,,1,1834680.5,18293359.6,0,0,,248.5,300.5,271.3,324.2,1233.7,15.2,41.78046327,-87.6053081,POINT (-87.6053081 41.78046327),2021-175824,4,9,22260,470,53
2021,251690,Chicago Military Academy-Bronzeville -CPS,Exempt,3533 S Giles Ave,60653,,true,DOUGLAS,K-12 School,121900,1999,1,,,,,,,,,,,,,,41.83033232,-87.61897054,POINT (-87.61897054 41.83033232),2021-251690,9,1,4301,222,48
2021,105551,THE CAROLAN APARTMENTS,Submitted,5480 S CORNELL AVE,60615,4.0,false,HYDE PARK,Multifamily Housing,129149,1923,1,,87,941046.7,9078070.2,0,0,,82.2,99.8,88.7,106,616.6,5.1,41.80224043,-87.60332678,POINT (-87.60332678 41.80224043),2021-105551,33,8,21192,147,1
2021,159419,"Fifth Praire Shores, LLC",Submitted,2801 S King Dr,60616,2.0,false,DOUGLAS,Multifamily Housing,289267,1960,1,,24,4915381.8,31046600.2,0,0,,124.3,160.3,135.3,170.2,2351.1,8.1,41.84364282,-87.61673336,POINT (-87.61673336 41.84364282),2021-159419,10,1,21194,560,1
2021,120624,2641 West Harrison,Submitted,2641 W Harrison St,60612,1.0,false,EAST GARFIELD PARK,Other,55754,2007,1,,,3219897.6,2799133,0,0,,108,214.4,114.7,221.5,608.6,10.9,41.87340714,-87.69235672,POINT (-87.69235672 41.87340714),2021-120624,23,28,21184,38,11
2021,160241,Lake Meadows 6,Submitted,500 E 33rd St,60616,1.0,false,DOUGLAS,Multifamily Housing,363053,1956,1,,4,10931311,33334639.4,0,0,,145.5,215.7,156.8,227.6,3331.8,11,41.83491649,-87.61417553,POINT (-87.61417553 41.83491649),2021-160241,10,1,21194,581,1
2021,251428,"Henson Elementary, Matthew A -CPS",Exempt,1326 S Avers Ave,60623,,true,NORTH LAWNDALE,K-12 School,64300,2005,1,,,,,,,,,,,,,,41.86377597,-87.72184326,POINT (-87.72184326 41.86377597),2021-251428,14,30,21569,33,36
2021,251595,William P Nixon Elementary School,Submitted,2121 N Keeler Ave,60639,2.0,false,HERMOSA,K-12 School,130113,1896,2,,45,2984107.6,7146800.1,0,0,,77.9,121.9,86.1,130.6,805.8,6.2,41.91952065,-87.73118053,POINT (-87.73118053 41.91952065),2021-251595,12,21,22615,76,27
2021,244931,The Metropolitan Place Condominium Association,Submitted,130 S Canal St,60606,4.0,false,NEAR WEST SIDE,Multifamily Housing,574600,1949,1,,97,8125548.3,16666344.6,0,0,,43.1,70.1,45.7,71.7,2045.8,3.6,41.87963192,-87.64039396,POINT (-87.64039396 41.87963192),2021-244931,36,29,14914,786,48
2021,159647,The Van der Rohe,Submitted,2933 N Sheridan Rd,60657,2.0,false,LAKE VIEW,Multifamily Housing,220300,1952,1,,45,4959539.9,12858000.5,0,0,,92.1,141.5,98.6,146.5,1391.3,7.2,41.93522966,-87.63890549,POINT (-87.63890549 41.93522966),2021-159647,25,57,4449,153,38
2021,116144,Pope Building Condominium Association,Submitted,633  S PLYMOUTH CT,60605,4.0,false,LOOP,Multifamily Housing,125000,1895,1,,83,2154465.1,4929930.2,0,0,,56.7,89.7,59.8,91.7,569.6,4.6,41.86863212,-87.62730687,POINT (-87.62730687 41.86863212),2021-116144,10,38,14913,368,48
2021,175995,IL2125ZZ-QUINCY COURT BLDG,Submitted,11 W Quincy Ct,60604,4.0,false,LOOP,Office,120592,1985,1,,89,2374527.8,2104501.2,0,0,,37.1,73.5,38.4,74.2,450.9,3.7,41.87874431,-87.63098611,POINT (-87.63098611 41.87874431),2021-175995,36,38,14912,92,22
2021,255757,Viceroy Chicago,Submitted,1118 N State Street,60610,3.0,false,NEAR NORTH SIDE,Hotel,134668,2017,1,,68,7431056.2,10851443.9,0,0,,135.8,239.1,137.6,238.2,1637.7,12.2,41.9056301,-87.6322449,POINT (-87.6322449 41.9056301),2021-255757,11,37,14926,17,22
2021,234838,Michigan Avenue Tower II Condominium Association,Submitted,1400 S Michigan Ave,60605,3.0,false,NEAR SOUTH SIDE,Multifamily Housing,469949,2008,1,,61,10214507.8,13724494.1,0,0,,69.6,125,73.5,129.1,2187.9,6.4,41.86378484,-87.62455468,POINT (-87.62455468 41.86378484),2021-234838,9,34,14913,374,48
2021,251409,Dewey Elementary Academy of Fine Arts,Submitted,5401 S Union Ave,60609,1.5,false,NEW CITY,K-12 School,86191,1900,2,,32,2598155.1,4492300.2,0,0,,82.3,139.1,89.6,149,609.7,7.1,41.796083,-87.642718,POINT (-87.642718 41.796083),2021-251409,4,59,14924,84,12
2021,256667,Oakwood Court,Submitted,6547 N Harlem Avenue,,4.0,false,,Multifamily Housing,134153,1970,1,,97,729632.3,4180975.7,0,0,,43,56.4,45.8,58.4,326.3,2.9,41.88425,-87.63245,POINT (-87.63245 41.88425),2021-256667,36,38,14310,92,22
2021,175242,C5870LAK (22233),Submitted,5870  W LAKE ST,60644,3.0,false,AUSTIN,Multifamily Housing,50000,1965,1,,49,941459.5,2845593.1,0,0,,75.7,112.5,79.4,115.3,285.6,5.7,41.88039405,-87.75826967,POINT (-87.75826967 41.88039405),2021-175242,23,26,22216,674,11
2021,160284,1251/1255 S. Michigan,Submitted,1255 S Michigan Ave,60605,1.5,false,NEAR SOUTH SIDE,Multifamily Housing,642408,2006,2,,40,13612225.2,38763000.6,0,0,,84.7,127.4,88.7,130.9,4003.1,6.5,41.86623341,-87.62362373,POINT (-87.62362373 41.86623341),2021-160284,9,34,14913,374,48
2021,254167,Simpson Living Learning Center-ID# 254167,Submitted,6333 N Winthrop Ave,60660,3.0,false,Edgewater,Residence Hall/Dormitory,117481,1991,1,,,4895841.3,6460761.3,0,0,,96.7,174.4,103.8,181.9,1042.4,8.9,41.99740324,-87.65829455,POINT (-87.65829455 41.99740324),2021-254167,16,76,4451,212,40
2021,117398,Circle Park,Submitted,1111  S ASHLAND AVE,60607,4.0,false,NEAR WEST SIDE,Multifamily Housing,389174,1982,17,,100,4607851.4,1859092.7,0,0,,16.6,38.2,17.3,40.2,756.9,1.9,41.87399385,-87.651678,POINT (-87.651678 41.87399385),2021-117398,48,29,14917,97,8
2021,132017,1300 Dearborn,Submitted,1300 1310 N DEARBORN ST,60610,4.0,false,NEAR NORTH SIDE,Retail Store,60000,1915,1,,99,753611.9,1560690,0,0,,38.6,62.5,38.8,63.1,190.5,3.2,41.90614898,-87.63008406,POINT (-87.63008406 41.90614898),2021-132017,11,37,14926,17,22
2021,256797,Algonquin Venture Real Estate LLC,Submitted,1135 W SHERIDAN RD,,3.5,false,Edgewater,Multifamily Housing,100160,2019,1,,59,3386669.3,927300,0,0,,43.1,104.4,46.2,111.7,533,5.3,41.88425,-87.63245,POINT (-87.63245 41.88425),2021-256797,36,38,14310,92,22
2021,173723,(IL1045) - 1260 Astor Building Corporation,Submitted,1260  N ASTOR ST,60610,4.0,false,NEAR NORTH SIDE,Multifamily Housing,95948,1931,1,,,1651828.4,5151956.5,0,0,,70.9,104.6,70.2,102.6,509.6,5.3,41.9037528,-87.63558845,POINT (-87.63558845 41.9037528),2021-173723,46,37,14926,148,41
2021,251547,Matthew Gallistel Elementary Language Academy,Submitted,10347 S Ewing Ave,60617,3.0,false,EAST SIDE,K-12 School,94577,1897,4,,63,1943596.3,4474350,0,0,,67.9,107.2,75,114.7,515.3,5.4,41.70690075,-87.53493184,POINT (-87.53493184 41.70690075),2021-251547,47,49,21202,715,47
2021,252049,Cobb Hall,Submitted,5811 - 5827 S Ellis Ave,60637,3.0,false,HYDE PARK,College/University,80082,1892,1,,,1306399.2,5658,5412939.1,2967840,,121,160.8,119.6,160.4,702.7,8.8,41.78898211,-87.6009439,POINT (-87.6009439 41.78898211),2021-252049,33,8,22260,154,32
2021,134735,Searle Chemistry Laboratory,Submitted,5735 S Ellis Ave,60637,1.0,false,HYDE PARK,Laboratory,85570,2009,1,,,12682257.3,66036,18677659,18913201.4,,588.3,879.5,576,873.9,4051.8,47.4,41.79059152,-87.60101889,POINT (-87.60101889 41.79059152),2021-134735,33,8,22260,154,32
2021,256407,8795,Submitted,340 E Superior Street,60611,1.0,false,NEAR NORTH SIDE,College/University,187974,1925,1,,,8560332.7,20905747,0,0,,156.8,244.3,165.4,253.3,2333,12.4,41.89837,-87.62281702,POINT (-87.62281702 41.89837),2021-256407,11,37,21182,233,22
2021,156373,225 W. Ohio,Submitted,225 W Ohio St,60654,3.5,false,NEAR NORTH SIDE,Office,60892,1907,1,,76,1335736.9,1543931.3,0,0,,47.3,88,49.9,90,272.8,4.5,41.89234316,-87.63534055,POINT (-87.63534055 41.89234316),2021-156373,36,37,4446,652,22
2021,228455,Hemingway House Condominium Association,Submitted,1850-1856 N Clark St,60614,2.0,false,LINCOLN PARK,Multifamily Housing,246000,1969,1,,24,6358623.7,17582732.1,0,0,,124.6,188.8,131.6,194.5,1842.1,9.6,41.91645312,-87.63490931,POINT (-87.63490931 41.91645312),2021-228455,34,68,21190,271,51
2021,251908,Pilsen Comm Academy -CPS,Exempt,1420 W 17th St,60608,,true,LOWER WEST SIDE,K-12 School,81769,1986,1,,,,,,,,,,,,,,41.85902701,-87.66243324,POINT (-87.66243324 41.85902701),2021-251908,26,33,14920,365,8
2021,103617,33 E Congress,Submitted,33 E Congress Pkwy,60605,3.0,false,LOOP,College/University,153876,1925,0,,,6397677.4,4061905,0,0,,68,144.1,72.1,148.5,1129.5,7.3,41.87540112,-87.62651136,POINT (-87.62651136 41.87540112),2021-103617,10,38,14913,367,48
2021,240019,(IL298) - 1555 Astor Condo,Submitted,1555 N Astor St,60610,2.0,false,NEAR NORTH SIDE,Multifamily Housing,383962,1974,1,,26,17486104.2,3570480.1,0,0,,68,170.2,72.1,181.6,2687.1,8.7,41.91063947,-87.62728476,POINT (-87.62728476 41.91063947),2021-240019,34,37,14926,308,51
2021,107939,,Not Submitted,5040 N KENMORE AVE,60640,0.0,false,UPTOWN,,90528,,,,,,,,,,,,,,,,41.97223008,-87.6645957,POINT (-87.6645957 41.97223008),2021-107939,18,31,22616,633,37
2021,160319,500 Lake Shore Drive,Submitted,500 N Lake Shore Dr,60611,4.0,false,NEAR NORTH SIDE,Multifamily Housing,892542,2013,1,,87,17371730.6,14477651.3,0,0,,44.4,89.1,45.6,89.4,3250.1,4.5,41.892001,-87.614665,POINT (-87.614665 41.892001),2021-160319,36,37,21182,534,22
2021,101793,Wrightwood,Submitted,625  W WRIGHTWOOD AVE,60614,4.0,false,LINCOLN PARK,Multifamily Housing,88000,1965,1,,89,1214865.8,2662820.7,0,0,,44.1,70.4,46.1,71.8,315,3.6,41.92201051,-87.65461957,POINT (-87.65461957 41.92201051),2021-101793,34,68,21190,797,16
2021,244387,Regatta Condominium Association,Submitted,420 E Waterside Dr,60601,4.0,false,LOOP,Multifamily Housing,640423,2006,1,,63,12172699,22844938.6,0,0,,77.4,128.4,81.5,131.9,2952,6.5,41.88718713,-87.61626502,POINT (-87.61626502 41.88718713),2021-244387,36,38,14309,580,22
2021,159310,Arrive Lex - Trinity,Submitted,2138 S Indiana Ave,60616,1.0,false,NEAR SOUTH SIDE,Multifamily Housing,451466,2009,2,,11,16763196.9,19755812.6,0,0,,94.3,174.8,94.3,174.8,3443.6,8.9,41.85321746,-87.62304215,POINT (-87.62304215 41.85321746),2021-159310,9,34,21194,374,48
2021,132904,4801 W. Peterson Ave,Submitted,4801 W Peterson Ave,60646,4.0,false,FOREST GLEN,Office,91200,1974,1,,99,668054.2,2455985,0,0,,34.3,48.8,,,225.9,2.5,41.98985293,-87.74879114,POINT (-87.74879114 41.98985293),2021-132904,38,12,22532,782,20
2021,251279,WMS-2727 Roscoe,Not Submitted,2727 W Roscoe St,60618,0.0,false,AVONDALE,Office,63752,1945,1,,,,,,,,,,,,,,41.94235025,-87.69688548,POINT (-87.69688548 41.94235025),2021-251279,20,22,21538,425,2
2021,165425,Smith Senior Living,Not Submitted,2320  W 113TH PL,60643,0.0,false,MORGAN PARK,,445461,,,,,,,,,,,,,,,,41.6981819,-87.66236671,POINT (-87.66236671 41.6981819),2021-165425,42,74,22212,380,33
2021,114638,56th & Kimbark Condo Association,Submitted,5543 5559 S KIMBARK AVE,60637,3.5,false,HYDE PARK,Multifamily Housing,61800,1928,1,,53,495473.6,4708946.4,0,0,,84.2,102.5,92.6,110.4,320.9,5.2,41.78046327,-87.6053081,POINT (-87.6053081 41.78046327),2021-114638,4,9,22260,470,53
2021,251542,Daniel Boone Elementary School,Submitted,6710 N Washtenaw Ave,60645,2.0,false,WEST RIDGE,K-12 School,92344,1927,3,,43,1358443.4,7179339.6,0,0,,92.5,122.8,105.6,136.6,575.4,6.2,42.00373408,-87.69785671,POINT (-87.69785671 42.00373408),2021-251542,27,20,22528,40,42
2021,121355,Mercedes Benz of Chicago,Not Submitted,1520 W North Ave,60642,0.0,false,WEST TOWN,Automobile Dealership,54800,2010,1,,,,,,,,,,,,,,41.91068845,-87.66598208,POINT (-87.66598208 41.91068845),2021-121355,40,25,22620,109,24
2021,256549,287 - Home2 Suites - Chicago River North,Submitted,110 W Huron St,60654,1.0,false,Near North Side,Hotel,118882,2019,1,,12,7202175.8,4037439.9,0,0,,94.5,205.3,96.1,206.3,1243.1,10.5,41.89293,-87.63511083,POINT (-87.63511083 41.89293),2021-256549,36,37,4446,652,22
2021,101841,122 Property LLC,Submitted,122 S Michigan Ave,60603,4.0,false,LOOP,Office,512369,1910,1,,63,17280541.4,30692995.9,0,5127384.1,,103.6,166.4,110.7,175,4368.6,8.5,41.87991058,-87.62493152,POINT (-87.62493152 41.87991058),2021-101841,36,38,14311,367,22
2021,156999,Lenart Elementary Regional Gifted Center,Submitted,8101 S LaSalle St,60620,3.5,false,CHATHAM,K-12 School,60474,1961,1,,72,750085.9,3239350,0,0,,66,91,72.7,98,279.2,4.6,41.74666167,-87.62760345,POINT (-87.62760345 41.74666167),2021-156999,13,40,21554,1,18
2021,103933,3161 Cambridge,Submitted,3161  N CAMBRIDGE AVE,60657,4.0,false,LAKE VIEW,Multifamily Housing,62825,1968,1,,96,497743.2,2896910.8,0,0,,66.8,87.3,71.4,91.7,225,4.4,41.9398511,-87.65844752,POINT (-87.65844752 41.9398511),2021-103933,25,57,4449,710,38
2021,256437,Tech South,Submitted,3450 S State Street,60616,4.0,false,DOUGLAS,College/University,82554,1955,1,,,1192009.5,0,0,0,,14.4,40.4,,,170.3,2.1,41.842325,-87.62715344,POINT (-87.62715344 41.842325),2021-256437,9,1,21194,377,12
2021,158867,Windermere House,Submitted,1642 E 56th St,60637,3.5,false,HYDE PARK,Multifamily Housing,359018,1923,1,,58,4630531,23241350.1,0,0,,77.6,104.1,83.8,109.7,1895.8,5.3,41.79381936,-87.58493468,POINT (-87.58493468 41.79381936),2021-158867,33,8,22260,502,32
2021,175130,,Not Submitted,5925  N PAULINA ST,60660,0.0,false,EDGEWATER,,50173,,,,,,,,,,,,,,,,41.99090057,-87.66660744,POINT (-87.66660744 41.99090057),2021-175130,16,76,4451,536,40
2021,254114,HRTL - Town Hall: 3600 N Halsted,Submitted,3600 N Halsted St,60613,1.0,false,Lake View,Multifamily Housing,92072,2014,1,,28,3111126.4,3371789.9,0,0,,70.4,133.1,73.4,136.2,623.4,6.8,41.9474017,-87.64964,POINT (-87.64964 41.9474017),2021-254114,25,57,21186,727,38
2021,130634,Academy of General Dentistry,Submitted,560 - 566 W Lake St,60661,3.5,false,NEAR WEST SIDE,Office,113151,1920,1,,75,5426973.7,0,0,0,,48,134.3,50.1,140.4,775.1,6.9,41.88592549,-87.64270985,POINT (-87.64270985 41.88592549),2021-130634,36,29,4452,784,22
2021,101868,AG 300 South Wacker Owner LLC,Submitted,300 S Wacker Dr,60606,3.5,false,LOOP,Office,618563,1971,1,,73,21817215.1,18026606.7,0,0,,65.4,131.3,69.1,134.7,4073.6,6.7,41.87767066,-87.6371323,POINT (-87.6371323 41.87767066),2021-101868,36,38,14914,92,48
2021,175595,"714 -726 W. Waveland, LLC",Submitted,714  N WAVELAND AVE,60613,4.0,false,LAKE VIEW,Multifamily Housing,52000,1915,1,,64,508685.9,2922766.2,0,0,,66,86.4,72.8,93.6,227.9,4.4,41.95402016,-87.6620278,POINT (-87.6620278 41.95402016),2021-175595,18,57,21186,725,13
2021,250062,R. J. QUINN ACADEMY (FIRE),Submitted,558 W De Koven St,60607,2.0,false,NEAR WEST SIDE,Adult Education,66285,1961,1,,,2889927.5,3272743.1,0,0,,93,173.9,99.1,178.3,586.6,8.8,41.86906393,-87.64161425,POINT (-87.64161425 41.86906393),2021-250062,26,29,14917,97,48
2021,255026,Lakeview 3200,Submitted,3218 N CLARK ST,60657,1.0,false,Lake View,Multifamily Housing,154165,2017,1,,27,6684889.3,2445239.9,0,0,,67.3,156.9,69.1,158.8,1084.7,8,41.94044194,-87.65115723,POINT (-87.65115723 41.94044194),2021-255026,25,57,4449,731,38
2021,251265,3150 N Sheridan,Submitted,3150 N Sheridan Rd,60657,3.0,false,LAKE VIEW,Multifamily Housing,263400,1974,1,,65,7973676.8,1584900,0,0,,41.9,105.3,44.8,113.2,1223,5.4,41.93922563,-87.63986123,POINT (-87.63986123 41.93922563),2021-251265,25,57,4449,683,38
2021,256528,,Not Submitted,710 W 14Th St,60607,0.0,false,Near West Side,,117992,,,,,,,,,,,,,,,,41.86387004,-87.64681941,POINT (-87.64681941 41.86387004),2021-256528,48,29,14917,97,8
2021,140247,,Not Submitted,3443  W ADDISON ST,60618,0.0,false,AVONDALE,,138000,,,,,,,,,,,,,,,,41.94672055,-87.70319673,POINT (-87.70319673 41.94672055),2021-140247,20,16,21538,372,2
2021,260127,The Gage Commericial Condominium Building,Submitted,18 28 S Michigan Ave,60603,4.0,false,LOOP,College/University,209399,1899,1,,,6756476.5,3511364.7,0,0,,49,108,50,106.9,1151.5,5.5,41.88150489,-87.6245097,POINT (-87.6245097 41.88150489),2021-260127,36,38,14311,367,22
2021,251701,UIC College Prep,Submitted,1231 S Damen Ave,60608,4.0,false,NEAR WEST SIDE,K-12 School,83646,1884,1,,89,1479317,3068123,0,0,,54.4,88,59.5,93.5,374.2,4.5,41.86522856,-87.6759051,POINT (-87.6759051 41.86522856),2021-251701,23,29,14920,96,48
2021,252269,Beth Anne Extended Living,Not Submitted,1143-53 N Lavergne,60651,0.0,false,AUSTIN,,80000,,,,,,,,,,,,,,,,41.90126341,-87.75080385,POINT (-87.75080385 41.90126341),2021-252269,45,26,4299,585,4
2021,240284,2700 N. Hampden Court Condominium Association,Submitted,2700 N Hampden Ct,60614,1.5,false,LINCOLN PARK,Multifamily Housing,144000,1964,1,,31,6048721.9,0,0,0,,54,151.2,56.3,157.5,863.9,7.7,41.93080836,-87.64197735,POINT (-87.64197735 41.93080836),2021-240284,34,68,21190,18,51
2021,251381,Washington Irving Elementary School,Submitted,749 S Oakley Blvd,60612,1.5,false,NEAR WEST SIDE,K-12 School,55148,1988,1,,40,1334931.4,3157689.9,0,0,,81.5,127.9,88.4,135.2,358.4,6.5,41.87176123,-87.68307061,POINT (-87.68307061 41.87176123),2021-251381,23,29,21184,5,8
2021,175979,245-Senior Suites Chicago Midway,Submitted,6800  S KEATING AVE,60629,4.0,false,WEST LAWN,Senior Living Community,84139,2015,1,,82,1845151.6,1286300,0,0,,37.2,77.5,38,77.6,331.9,3.9,41.77517105,-87.71389848,POINT (-87.71389848 41.77517105),2021-175979,6,63,21867,238,23
2021,101744,One North Wacker,Submitted,1 N Wacker Dr,60606,4.0,false,LOOP,Office,1684690,2001,1,,82,67421188.2,0,0,31983539,,61.6,135,61.3,138.2,11315.1,7,41.88230154,-87.636058,POINT (-87.636058 41.88230154),2021-101744,36,38,14914,92,22
2021,251445,Agustin Lara Elementary Academy,Submitted,4619 S Wolcott Ave,60609,2.0,false,NEW CITY,K-12 School,67964,1996,1,,47,2038898.6,2305850.3,0,0,,63.9,119.6,68.6,124.6,413.7,6.1,41.8097353,-87.67189911,POINT (-87.67189911 41.8097353),2021-251445,3,59,14924,706,53
2021,159528,(ILCH353) - Echelon [external],Not Submitted,353 N Des Plaines St,60661,0.0,false,NEAR WEST SIDE,Multifamily Housing,333262,2008,1,,,,,,,,,,,,,,41.88838308,-87.64399483,POINT (-87.64399483 41.88838308),2021-159528,36,29,4452,784,22
2021,157993,,Not Submitted,343 S DEARBORN ST,60604,0.0,false,LOOP,,167940,,,,,,,,,,,,,,,,41.87698814,-87.62918889,POINT (-87.62918889 41.87698814),2021-157993,10,38,14912,92,48
2021,251744,Disney II Magnet High School,Submitted,3900 N Lawndale Ave,60618,4.0,false,IRVING PARK,K-12 School,181923,1924,3,,88,1984924.5,8234390.1,0,0,,56.2,78.1,62.5,84.4,720.9,4,41.95226382,-87.72084334,POINT (-87.72084334 41.95226382),2021-251744,50,16,21538,326,28
2021,251514,South Shore ES,Exempt,1404 E 70th St,60637,,true,SOUTH SHORE,K-12 School,76945,1959,1,,,,,,,,,,,,,,41.767843,-87.590785,POINT (-87.590785 41.767843),2021-251514,33,39,22260,416,32
